Vehicle Type,Pickup City,Pickup State,Pickup ZIP,Delivery City,Delivery State,Delivery ZIP,Rate,Payment Method,Distance,Veh_qty,Vehicle Info,Vehicle Condition,Trailer Type,Pick-Up Date,Order ID,Additional Info,Company Name,Phone,Email,Rating,Pickup metro area,Delivery metro area,P_lat,P_lon,D_lat,D_lon,Time_first,Time_last
SUV,Columbia,SC,29201,Farmington,NH,03835,550,COD/COP,999,1,2015 nissan rogue,Runs,ENCLOSED,2023-01-26,10957858,Richard 470-560-3627,USA Carship Inc,(404) 835-7997,info@usacarship.com,96.8,Columbia,Boston - Cambridge - Quincy,33.986628,-81.024826,43.362176,-71.074979,01_26_2023_07_48,01_26_2023_16_35
CAR,Streetsboro,OH,44241,Camanche,IA,52730,750,FIFTEEN_BUSINESS_DAYS,522,1,1959 mercedes-benz 190 sl,Runs,ENCLOSED,2023-01-27,9301-CR,Not specified,Executive Auto Transport LLC,(774) 304-1197,executive.autotrans@gmail.com,99.9,Akron,Not specified,41.239251,-81.333941,41.771708,-90.333428,01_26_2023_07_48,01_26_2023_09_26
CAR,sidney,OH,45365,evansdale,IA,50707,900,COD/COP,578,1,2017 chevrolet camaro,Runs,ENCLOSED,2023-01-25,108777,Not specified,Ace Logistics Group Holdings LLC,(850) 790-0280,dispatch@tigerautotransport.com,100.0,Not specified,Waterloo - Cedar Falls,40.283344,-84.166616,42.48069,-92.270795,01_26_2023_07_48,01_26_2023_09_10
SUV,sandusky,OH,44870,san tan valley,AZ,85140,1200,COD/COP,1992,1,2023 kia sportage,Runs,ENCLOSED,2023-01-27,2013,pickup urgent text 7032141099,Genius Auto Trans LLC,(888) 910-1799,info@geniusautotrans.com,94.0,Sandusky,Phoenix - Mesa - Glendale,41.413066,-82.735002,33.245483,-111.530217,01_26_2023_07_48,01_26_2023_08_29
CAR,Orient,OH,43146,Timber Lake,SD,57656,1350,COD/COP,1234,1,2018 dodge challenger,Runs,ENCLOSED,2023-01-25,Jesse Dodge Demon,Call  or text Mike 561-409-9011 for dispatch anytime ,Marescas Auto Transport,(561) 409-9011,mmaresca22@yahoo.com,99.5,Columbus,Not specified,39.767894,-83.160088,45.325374,-100.966762,01_26_2023_07_48,01_26_2023_08_35
CAR,Norwalk,OH,44857,Silver Spring,MD,20906,700,COD/COP,408,1,1930 ford model a,Runs,ENCLOSED,2023-02-06,11139849,need 2 car enclosed only-no pick up before Feb 6,Certified Auto Shippers LLC,(503) 760-3232,kathy@certifiedautoshippers.com,100.0,Not specified,Washington - Arlington - Alexandria,41.2205,-82.590176,39.08528,-77.058949,01_26_2023_07_48,01_26_2023_16_35
SUV,North Olmsted,OH,44070,Seattle,WA,98115,1800,COD/COP,2403,1,2023 porsche macan,Runs,ENCLOSED,2023-01-26,CONTACT Q 440-532-0791,CONTACT Q 440-532-0791,M1 Motors Inc,(440) 716-2700,matt@mbzno.com,99.4,Cleveland - Elyria - Mentor,Seattle - Tacoma - Bellevue,41.416152,-81.922022,47.683612,-122.278022,01_26_2023_07_48,01_26_2023_10_02
CAR,North Canton,OH,44720,Chula Vista,CA,91911,1600,COD/COP,2405,1,2015 chevrolet camaro,Runs,ENCLOSED,2023-01-26,Not specified,Not specified,Fiat Of Strongsville,330-526-8045,brettlukovski@msn.com,98.2,Canton - Massillon,San Diego - Carlsbad - San Marcos,40.896635,-81.434908,32.607009,-117.050286,01_26_2023_07_48,01_26_2023_08_45
CAR,north canton,OH,44720,farragut,TN,37934,700,COD/COP,506,1,2011 porsche boxster,Runs,ENCLOSED,2023-01-23,White,Not specified,RSM MOTORS,(330) 212-5756,sam@rsmmotors.com,100.0,Canton - Massillon,Knoxville,40.896635,-81.434908,35.870594,-84.180338,01_26_2023_07_48,01_26_2023_08_23
CAR,North Canton,OH,44720,Waxahachie,TX,75165,1300,FIVE_BUSINESS_DAYS,1215,1,2018 ferrari 488 gtb,Runs,ENCLOSED,2023-01-27,11152676,Not specified,Power2ship Inc,(954) 654-7808,dispatch@power2ship.com,100.0,Canton - Massillon,Dallas - Fort Worth - Arlington,40.896635,-81.434908,32.322465,-96.780605,01_26_2023_07_48,01_26_2023_16_35
CAR,Macedonia,OH,44056,Livermore,CA,94551,1650,FIVE_BUSINESS_DAYS,2482,1,1987 buick regal,Runs,ENCLOSED,2023-01-26,30583575-CC,ready runs and drives,AAA Car Go Plus Inc,(303) 317-3113,dispatch@candccar-go.com,100.0,Akron,San Francisco - Oakland - Fremont,41.313498,-81.496454,37.764424,-121.765292,01_26_2023_07_48,01_26_2023_16_35
CAR,Hudson,OH,44224,Camanche,IA,52730,750,COD/COP,521,1,1959 mercedes-benz 190sl,Runs,ENCLOSED,2023-01-24,LG692 IA,Not specified,Executive Motor Coach,(859) 414-8298,lloyd@emotorc.com,100.0,Akron,Not specified,41.170156,-81.450318,41.771708,-90.333428,01_26_2023_07_48,01_26_2023_16_35
CAR,Hamilton,OH,45011,Baraboo,WI,53913,700,COD/COP,493,1,1993 ford mustang svt cobra,Runs,ENCLOSED,2023-02-03,EC-9968,Not specified,Car Sales America,(619) 631-5646,qualitycarshipping1@gmail.com,99.7,Cincinnati - Middletown,Not specified,39.426896,-84.497486,43.465286,-89.758772,01_26_2023_07_48,01_26_2023_16_35
CAR,Gallipolis,OH,45631,San Antonio,TX,78253,1455,TEN_BUSINESS_DAYS,1332,1,2006 chevrolet ssr,Runs,ENCLOSED,2023-01-25,Ready Today 1-25,Not specified,American Auto Transfers LLC,(408) 418-2921,amautotransfers14@gmail.com,99.8,Not specified,San Antonio - New Braunfels,38.812893,-82.267837,29.471996,-98.796976,01_26_2023_07_48,01_26_2023_08_13
CAR,Etna,OH,43105,Fort Collins,CO,80524,1900,COD/COP,1346,1,1972 chevrolet corvette,Inop,ENCLOSED,2023-02-03,22-26380,https://shipez.us/DnFmY,Freedom Auto Transport LLC,(954) 320-0330,dispatch@freedomautotransport.com,100.0,Columbus,Fort Collins - Loveland,39.865376,-82.617183,40.662014,-105.003223,01_26_2023_07_48,01_26_2023_16_35
CAR,Defiance,OH,43512,addison,IL,60101,550,COD/COP,237,1,1973 dodge challenger,Runs,ENCLOSED,2023-01-26,1170,Not specified,Tri State Auto Wholesalers Inc,(630) 669-2975,bestofbest71@yahoo.com,95.8,Not specified,Chicago - Naperville - Joliet,41.303763,-84.365654,41.930898,-88.01399,01_26_2023_07_48,01_26_2023_11_08
CAR,Dayton,OH,45458,Tucson,AZ,85719,1550,COD/COP,1870,1,2018 bmw x4,Runs,ENCLOSED,2023-01-25,29029120,Not specified,Route Runners Logistics Inc,(516) 776-9502,dispatch@routerunnerslogistics.com,98.4,Dayton - Kettering,Tucson,39.599287,-84.163593,32.248016,-110.947413,01_26_2023_07_48,01_26_2023_11_52
SUV,dayton,OH,45401,naples,FL,34120,1300,COD/COP,1132,1,2023 escalade esv,Runs,ENCLOSED,2023-01-24,Not specified,Not specified,Gorilla Built Offroad Inc,(239) 595-9459,jake@thetruckshopswfl.com,100.0,Dayton - Kettering,Naples - Marco Island,39.7587,-84.1919,26.322766,-81.559226,01_26_2023_07_48,01_26_2023_16_35
PICKUP,Dayton,OH,45431,Jonesborough,TN,37659,555,COD/COP,369,1,1967 ford f100,Runs,ENCLOSED,2023-01-26,11125624,Calls only 2394226473,V LIONS LOGISTICS,(000) 000-0000,info@v-lionslogisticsllc.com,100.0,Dayton - Kettering,Johnson City,39.769427,-84.075651,36.285561,-82.472923,01_26_2023_07_48,01_26_2023_16_35
PICKUP,Dayton,OH,45401,Jonesborough,TN,37659,550,COD/COP,363,1,1967 ford 100,Runs,ENCLOSED,2023-01-26,11138868,For fast dispatch text to 346-394-8189,GP Auto Logistics,(512) 503-1654,info@gpautologistics.com,98.4,Dayton - Kettering,Johnson City,39.7587,-84.1919,36.285561,-82.472923,01_26_2023_07_48,01_26_2023_11_03
CAR,columbus,OH,43228,north chesterfield,VA,23234,700,COD/COP,495,1,2015 chevrolet corvette,Runs,ENCLOSED,2023-01-25,1709687,Not specified,Montway LLC- Relocation,(224) 300-5401,vip@montway.com,100.0,Columbus,Richmond,39.955048,-83.134338,37.458422,-77.469799,01_26_2023_07_48,01_26_2023_09_04
PICKUP,Columbus,OH,43202,Jonesborough,TN,37659,550,COD/COP,342,1,1967 ford 100,Runs,ENCLOSED,2023-01-26,11139242,"fast dispatch text to 346-394-8189 Pick up Dayton, OH",GP Auto Logistics,(512) 503-1654,info@gpautologistics.com,98.4,Columbus,Johnson City,40.020272,-83.017128,36.285561,-82.472923,01_26_2023_07_48,01_26_2023_11_03
CAR,toledo,OH,43623,bakersfield,CA,93301,1605,COD/COP,2258,1,2015 ford focus,Runs,ENCLOSED,2023-02-03,30810792-yf,call or text chuck at 702 359 0907,Yellowfin Logistics LLC,(888) 223-5038,ben@yellowfinlogistics.com,99.7,Toledo,Bakersfield - Delano,41.705637,-83.659842,35.387899,-119.023585,01_26_2023_07_48,01_26_2023_16_35
CAR,Columbus,OH,43085,Jacksonville,FL,32099,780,COD/COP,823,1,1972 chevrolet monte carlo,Runs,ENCLOSED,2023-01-26,11048307,"fast dispatch text to 346.394.8189 pick up  Cincinnati, OH",GP Auto Logistics,(512) 503-1654,info@gpautologistics.com,98.4,Columbus,Jacksonville,40.100474,-83.013908,30.3383,-81.7706,01_26_2023_07_48,01_26_2023_16_35
CAR,toledo,OH,43606,las vegas,NV,89108,850,COD/COP,1977,1,2021 mercedes-benz s 65 amg,Runs,ENCLOSED,2023-01-28,30456805-ug,no comment,United Global Assets Inc,(786) 785-7009,mywaydhighway91@live.com,100.0,Toledo,Las Vegas - Paradise,41.674272,-83.60292,36.21435,-115.213179,01_26_2023_07_48,01_26_2023_16_35
CAR,Willoughby,OH,44094,Middleton,WI,53562,900,COD/COP,523,1,2017 porsche 911 cabriolet,Runs,ENCLOSED,2023-01-27,P5162,Not specified,Leikin Motors,(440) 946-6900,michael.leikin@leikinmotor.com,100.0,Cleveland - Elyria - Mentor,Madison,41.638178,-81.37721,43.114822,-89.521325,01_26_2023_07_48,01_26_2023_14_17
CAR,happy valley,OR,97086,frisco,TX,75033,1300,COD/COP,2016,1,2023 toyota gr 86,Runs,ENCLOSED,2023-01-27,30885960-us,asap call or text me 865 242 0885,US Star Trucking LLC,(865) 730-4992,usstartrucking@gmail.com,99.7,Portland - Vancouver - Hillsboro,Dallas - Fort Worth - Arlington,45.443206,-122.532454,33.182727,-96.846311,01_26_2023_07_48,01_26_2023_16_35
SUV,gladstone,OR,97027,indianapolis,IN,46201,1600,COD/COP,2271,1,2023 gmc yukon,Runs,ENCLOSED,2023-02-01,244556-67870,"destination: loveland,oh 45140",Nexus AT LLC,(224) 265-0677,dispatch@nexusautotransport.com,99.9,Portland - Vancouver - Hillsboro,Indianapolis - Carmel,45.388265,-122.597485,39.775737,-86.109626,01_26_2023_07_48,01_26_2023_16_35
SUV,gladstone,OR,97027,columbus,OH,43201,1600,COD/COP,2446,1,2023 gmc yukon,Runs,ENCLOSED,2023-02-01,244556-67869,"destination: loveland,oh 45140",Nexus AT LLC,(224) 265-0677,dispatch@nexusautotransport.com,99.9,Portland - Vancouver - Hillsboro,Columbus,45.388265,-122.597485,39.995575,-82.999464,01_26_2023_07_48,01_26_2023_16_35
SUV,gladstone,OR,97027,loveland,OH,45140,1600,COD/COP,2398,1,2023 gmc yukon,Runs,ENCLOSED,2023-02-01,244556-67868,Not specified,Nexus AT LLC,(224) 265-0677,dispatch@nexusautotransport.com,99.9,Portland - Vancouver - Hillsboro,Cincinnati - Middletown,45.388265,-122.597485,39.255337,-84.243508,01_26_2023_07_48,01_26_2023_16_35
CAR,Eugene,OR,97401,Kitty Hawk,NC,27949,1500,COD/COP,3094,1,1964 chevrolet corvette chassis,Runs,ENCLOSED,2023-01-26,NC Chassis,Text 9096192337 for dispatch,Beep Beep Auto Brokers LLC,(909) 619-2337,yelnegery@beep-beepautos.com,100.0,Eugene - Springfield,Not specified,44.067151,-123.082726,36.136112,-75.729414,01_26_2023_07_48,01_26_2023_16_35
PICKUP,Eugene,OR,97401,Orlando,FL,32803,2300,COD/COP,3059,1,1957 chevrolet pickup short bed 2wd needs $300k insurance or more,Runs,ENCLOSED,2023-01-25,Chevy pickup or to Fl,Text 9096192337 for dispatch,Beep Beep Auto Brokers LLC,(909) 619-2337,yelnegery@beep-beepautos.com,100.0,Eugene - Springfield,Orlando - Kissimmee - Sanford,44.067151,-123.082726,28.556902,-81.347116,01_26_2023_07_48,01_26_2023_16_35
PICKUP,Eugene,OR,97401,Dripping Springs,TX,78620,1400,TEN_BUSINESS_DAYS,2209,1,1975 chevrolet c10 lwb single cab with level camper shell,Runs,ENCLOSED,2023-01-28,11126458,832-437-1934 SELLER TO CUSTOMER SHOP PREFER SOFT SIDE  CALL,New World Auto Transport,(832) 437-2478,steve.wells50@yahoo.com,100.0,Eugene - Springfield,Austin - Round Rock - San Marcos,44.067151,-123.082726,30.22257,-98.144792,01_26_2023_07_48,01_26_2023_16_35
CAR,Eugene,OR,97402,Ann Arbor,MI,48108,1800,THIRTY_BUSINESS_DAYS,2376,1,2023 arcimoto reverse trike,Runs,ENCLOSED,2023-01-26,22090-man,Please call Micole (786) 259-0254,United Routes LLC,(866) 352-8180 x2,dispatch@unitedroutes.com,99.8,Eugene - Springfield,Ann Arbor,44.028103,-123.248479,42.223407,-83.729175,01_26_2023_07_48,01_26_2023_09_42
CAR,Boring,OR,97009,Miami,FL,33176,2500,COD/COP,3272,1,1963 lincoln town car,Runs,ENCLOSED,2023-01-26,10376206,Not specified,Power2ship Inc,(954) 654-7808,dispatch@power2ship.com,100.0,Portland - Vancouver - Hillsboro,Miami - Fort Lauderdale - Pompano Beach,45.416566,-122.337912,25.657725,-80.358996,01_26_2023_07_48,01_26_2023_09_07
CAR,Bend,OR,97701,Hampton,NH,03843,2450,COD/COP,3019,1,2023 porsche 911,Runs,ENCLOSED,2023-01-25,4484,Not specified,Auto Brokers USA Inc,(773) 658-2945,autobrokersusainc@gmail.com,100.0,Bend,Boston - Cambridge - Quincy,44.086767,-121.257448,42.9284,-70.8566,01_26_2023_07_48,01_26_2023_12_53
CAR,Woodbridge,ON,L3L 0A1,Kewaunee,WI,54216,2000,COD/COP,725,1,2002 chevrolet monte carlo,Runs,ENCLOSED,2023-01-24,Not specified,Not specified,Jorns Chevrolet of Kewaunee Inc,920-388-0520,pbeane@jorns.com,100.0,Not specified,Green Bay,43.893277,-79.613469,44.439919,-87.587498,01_26_2023_07_48,01_26_2023_16_35
SUV,Yukon,OK,73099,Cypress,TX,77410,600,COD/COP,461,1,2021 land rover range rover,Runs,ENCLOSED,2023-01-27,5095913,Not specified,Cross Country Moving Group Inc,(754) 244-5613,dispatch@ccmover.com,96.9,Oklahoma City,Houston - Sugar Land - Baytown,35.526808,-97.757584,29.9695,-95.6976,01_26_2023_07_48,01_26_2023_09_17
CAR,Tulsa,OK,74101,Clermont,FL,34711,1000,COD/COP,1171,1,1931 ford roadster,Runs,ENCLOSED,2023-01-26,114274,http:iTruckify.com/0y7tj,Safemile Auto Transport,(757) 271-8111,dispatch@safemileautotransport.com,100.0,Tulsa,Orlando - Kissimmee - Sanford,36.1537,-95.9926,28.519622,-81.748256,01_26_2023_07_48,01_26_2023_07_48
CAR,tulsa,OK,74101,clermont,FL,34711,850,COD/COP,1171,1,1931 ford roadster,Runs,ENCLOSED,2023-01-28,30812724-yf,call me or text me david lund 7028476241,Yellowfin Logistics LLC,(888) 223-5038,ben@yellowfinlogistics.com,99.7,Tulsa,Orlando - Kissimmee - Sanford,36.1537,-95.9926,28.519622,-81.748256,01_26_2023_07_48,01_26_2023_16_35
CAR,Tulsa,OK,74107,Dallas,TX,75260,200,COD/COP,254,1,2006 lamborghini gallardo,Runs,ENCLOSED,2023-01-24,Not specified,Not specified,Kabani Motorsports.Com,(918) 724-1792,omarkabani@gmail.com,100.0,Tulsa,Dallas - Fort Worth - Arlington,36.111106,-96.043222,32.768,-96.8277,01_26_2023_07_48,01_26_2023_16_35
CAR,Tulsa,OK,74145,Marietta,GA,30068,800,TWO_BUSINESS_DAYS,792,1,1981 porsche 911,Runs,ENCLOSED,2023-01-29,29245489,http:iTruckify.com/4vqsl VEH CANNOT GO SOONER,Bears Transport LLC,(847) 810-7641,etbears022@gmail.com,100.0,Tulsa,Atlanta - Sandy Springs - Marietta,36.09718,-95.886556,33.972174,-84.441108,01_26_2023_07_48,01_26_2023_13_58
CAR,Oklahoma City,OK,73142,Sarasota,FL,34240,1100,FIVE_BUSINESS_DAYS,1341,1,2020 chevrolet corvette,Runs,ENCLOSED,2023-01-31,30449434-XL,Res to Res COD,Xpress Auto Logistics Inc,(877) 522-0879,dispatch@xpressautoship.com,100.0,Oklahoma City,North Port - Bradenton - Sarasota,35.609283,-97.636962,27.331463,-82.34187,01_26_2023_07_48,01_26_2023_16_35
CAR,oklahoma city,OK,73160,naples,FL,34120,1300,COD/COP,1434,1,1963 porsche 356b (t6),Runs,ENCLOSED,2023-02-02,1701640,Not specified,Montway LLC,(224) 220-0003,dispatch@montway.com,100.0,Oklahoma City,Naples - Marco Island,35.334062,-97.47635,26.322766,-81.559226,01_26_2023_07_48,01_26_2023_11_03
CAR,Okarche,OK,73762,Dallas,TX,75207,400,TWO_BUSINESS_DAYS,245,1,2022 ford mustang,Runs,ENCLOSED,2023-01-24,A160101,Not specified,Carworx Auto Transport Inc,(425) 750-0983,movecars@gmail.com,100.0,Not specified,Dallas - Fort Worth - Arlington,35.799146,-97.9406,32.781467,-96.821474,01_26_2023_07_48,01_26_2023_16_35
CAR,Jenks,OK,74037,Carrollton,TX,75006,550,FIVE_BUSINESS_DAYS,243,1,1986 ferrari testarossa,Inop,ENCLOSED,2023-01-29,10945420,{PRICE NEGOTIABLE} CALL 346-801-9292 FOR DISPATCH,Active Car Valet LLC,(346) 499-2164,dschafer@activecarvalet.com,100.0,Tulsa,Dallas - Fort Worth - Arlington,36.011786,-95.973885,32.951364,-96.891487,01_26_2023_07_48,01_26_2023_08_58
SUV,Edmond,OK,73034,Ortonville,MI,48462,1100,COD/COP,1053,1,1977 chevrolet blazer,Runs,ENCLOSED,2023-02-01,11062661,Not specified,Shiplux LLC,(305) 517-3456,admin@shiplux.com,100.0,Oklahoma City,Detroit - Warren - Livonia,35.70715,-97.427426,42.844753,-83.425758,01_26_2023_07_48,01_26_2023_16_35
PICKUP,Whitehouse,OH,43571,Morrison,CO,80465,1650,COD/COP,1244,1,2022 ford raptor,Runs,ENCLOSED,2023-01-26,11083844,Call/Text company name and dates to 954 480 3144 EXT 26,"Mercury Auto Transport, Inc.1",(954) 239-2597,matt@mercuryautotransport.com,99.9,Toledo,Denver - Aurora,41.511388,-83.81205,39.60274,-105.207973,01_26_2023_07_48,01_26_2023_16_35
CAR,medford,OR,97504,livonia,MI,48154,2000,COD/COP,2383,1,2020 triumph rocket 3 r,Runs,ENCLOSED,2023-01-24,2000,call/text 703)719-8882,Genius Auto Trans LLC,(888) 910-1799,info@geniusautotrans.com,94.0,Medford,Detroit - Warren - Livonia,42.322754,-122.793404,42.397598,-83.373293,01_26_2023_07_48,01_26_2023_08_29
PICKUP,Columbus,OH,43207,Saint Augustine,FL,32092,900,TWO_BUSINESS_DAYS,839,1,1994 chevrolet w/t 1500,Runs,ENCLOSED,2023-01-23,10318,text or Call 386-212-6807,R&B Auto Transport Inc.,(386) 676-7404,rbautotransportinc@gmail.com,100.0,Columbus,Jacksonville,39.89075,-82.956005,29.912319,-81.542679,01_26_2023_07_48,01_26_2023_08_10
CAR,Columbia Station,OH,44028,Rancho Cucamonga,CA,91729,1400,COD/COP,2292,1,2021 chevy corvette chassis only,Runs,ENCLOSED,2023-01-25,OHCA,Not specified,Action Auto Broker,(954) 494-0304,actionauto@aol.com,99.6,Cleveland - Elyria - Mentor,Riverside - San Bernardino - Ontario,41.305728,-81.939778,34.1065,-117.5922,01_26_2023_07_48,01_26_2023_11_49
CAR,Wantagh,NY,11793,Richland,WA,99352,1800,COD/COP,2760,1,1950 buick roadmaster,Runs,ENCLOSED,2023-01-26,11111535,Please text with your best rate,ShipWit Global Inc,(847) 737-7562,admin@shipwit.com,99.8,New York - Northern New Jersey - Long Island,Kennewick - Richland - Pasco,40.67766,-73.512061,46.249723,-119.302544,01_26_2023_07_48,01_26_2023_15_20
CAR,Troy,NY,12180,Cocoa Beach,FL,32931,1500,COD/COP,1266,1,1959 chevrolet corvette,Runs,ENCLOSED,2023-02-01,59 vette,Not specified,Shipperz Inc,(518) 836-7798,nick@shipperzinc.com,98.1,Albany - Schenectady - Troy,Palm Bay - Melbourne - Titusville,42.74558,-73.59177,28.325736,-80.622511,01_26_2023_07_48,01_26_2023_16_35
CAR,syracuse,NY,13219,mansfield,PA,16933,500,COD/COP,125,1,2023 chevrolet corvette,Runs,ENCLOSED,2023-01-30,250476-68670,"origin: brockport,ny 14420",Nexus AT LLC,(224) 265-0677,dispatch@nexusautotransport.com,99.9,Syracuse,Not specified,43.040518,-76.223225,41.82955,-77.057707,01_26_2023_07_48,01_26_2023_16_35
CAR,Syracuse,NY,13211,Suisun City,CA,94585,1215,COD/COP,2751,1,2014 lexus is 250,Runs,ENCLOSED,2023-01-26,10813833,James (404) 446-3921 Ready asap,USA Carship Inc,(404) 835-7997,info@usacarship.com,96.8,Syracuse,Vallejo - Fairfield,43.105746,-76.119808,38.155588,-121.945124,01_26_2023_07_48,01_26_2023_16_35
SUV,syracuse,NY,13201,greensboro,NC,27401,950,COD/COP,640,1,2017 jeep grand cherokee,Runs,ENCLOSED,2023-01-30,1708165,"p/u in cortland,ny 13045.del in martinsville,va 24112.",Montway LLC,(224) 220-0003,dispatch@montway.com,100.0,Syracuse,Greensboro - High Point,43.0499,-76.1506,36.071916,-79.769346,01_26_2023_07_48,01_26_2023_10_08
CAR,syracuse,NY,13201,daytona beach,FL,32124,1850,COD/COP,1172,1,2023 chevrolet corvette,Runs,ENCLOSED,2023-01-30,1708209,"actual p/u in ogdensburg,ny 13669.",Montway LLC,(224) 220-0003,dispatch@montway.com,100.0,Syracuse,Deltona - Daytona Beach - Ormond Beach,43.0499,-76.1506,29.130812,-81.14881,01_26_2023_07_48,01_26_2023_09_32
PICKUP,Syracuse,NY,13206,South Boston,MA,02127,350,COD/COP,310,1,2023 gmc sierra 1500 cab chassis 2wd,Runs,ENCLOSED,2023-01-26,10688880,Simon (404) 400-5293 || Ready for dispatch,USA Carship Inc,(404) 835-7997,info@usacarship.com,96.8,Syracuse,Boston - Cambridge - Quincy,43.072982,-76.10435,42.336076,-71.035834,01_26_2023_07_48,01_26_2023_16_35
SUV,saugerties,NY,12477,clinton,WA,98236,2450,IMMEDIATELY,2937,1,2023 jeep wrangler jl 4door,Runs,ENCLOSED,2023-01-25,Jeep NY to Wa,Not specified,Beep Beep Auto Brokers LLC,(909) 619-2337,yelnegery@beep-beepautos.com,100.0,Kingston,Not specified,42.08412,-73.999634,47.956158,-122.417732,01_26_2023_07_48,01_26_2023_16_35
CAR,Saugerties,NY,12477,Berkley,MA,02779,450,COD/COP,214,1,2006 chevrolet corvette,Runs,ENCLOSED,2023-01-26,11121314,call & text 7705733414 for the dispatch,Cheapautotrans Inc,(770) 881-7185,info@cheapautotrans.com,97.2,Kingston,Providence - New Bedford - Fall River,42.08412,-73.999634,41.825889,-71.070392,01_26_2023_07_48,01_26_2023_16_35
CAR,saugerties,NY,12477,berkley,MA,02779,500,COD/COP,214,1,2006 chevrolet corvette,Runs,ENCLOSED,2023-01-25,30457308-ug,call or text 786-785-7476,United Global Assets Inc,(786) 785-7009,mywaydhighway91@live.com,100.0,Kingston,Providence - New Bedford - Fall River,42.08412,-73.999634,41.825889,-71.070392,01_26_2023_07_48,01_26_2023_16_35
CAR,roxbury,NY,12474,sullivan,IL,61951,400,COD/COP,924,1,1965 jeep cj-5,Runs,ENCLOSED,2023-01-02,30453549-ug,no comment,United Global Assets Inc,(786) 785-7009,mywaydhighway91@live.com,100.0,Not specified,Not specified,42.302556,-74.556365,39.593506,-88.5872,01_26_2023_07_48,01_26_2023_16_35
CAR,rochester,NY,14623,auburn,GA,30011,1100,COD/COP,923,1,2020 porsche 911 carrera,Runs,ENCLOSED,2023-01-27,30514718-sf,929 566-5024,SAFE AUTO TRUCKING LLC,(610) 871-7777,safeautotruckingcd@gmail.com,100.0,Rochester,Atlanta - Sandy Springs - Marietta,43.089216,-77.650817,34.01969,-83.834749,01_26_2023_07_48,01_26_2023_09_23
CAR,Rochester,NY,14623,Auburn,GA,30011,1150,COD/COP,923,1,2020 porsche 911 carrera,Runs,ENCLOSED,2023-01-26,10813863,"pick up ASAP, call & text me at (313) 887-1805",Profexo Inc,(313) 486-2166,info@profexoshipping.com,99.5,Rochester,Atlanta - Sandy Springs - Marietta,43.089216,-77.650817,34.01969,-83.834749,01_26_2023_07_48,01_26_2023_11_58
CAR,Ridgewood,NY,11385,Minneapolis,MN,55401,1150,COD/COP,1211,1,1972 dodge dart,Runs,ENCLOSED,2023-01-26,589646,"TEXT Pete@954-274-5214,please DONT call, Yes it Runs",Fast Auto Movers Inc.,(954) 364-7510,petersbiz@aol.com,100.0,New York - Northern New Jersey - Long Island,Minneapolis - St. Paul - Bloomington,40.698203,-73.880444,44.984768,-93.269678,01_26_2023_07_48,01_26_2023_12_27
CAR,queens,NY,11413,tallahassee,FL,32312,1050,COD/COP,1124,1,1987 chevrolet caprice,Runs,ENCLOSED,2023-01-24,5wn-50043,Not specified,SGT Auto Transport,(864) 546-5038,sgtautotransport@gmail.com,99.9,New York - Northern New Jersey - Long Island,Tallahassee,40.665415,-73.749702,30.579714,-84.2056,01_26_2023_07_48,01_26_2023_11_08
CAR,Poughkeepsie,NY,12601,Blue Springs,MO,64015,1000,COD/COP,1227,1,1999 pontiac trans am,Runs,ENCLOSED,2023-01-26,TRANSAM-KC Text Only 913-215-3113 Ready 1-26,Text Only 913-215-3113 Ready 1-26 ,airRyd LLC,(913) 215-3113,customerservice@airryd.com,100.0,Poughkeepsie - Newburgh - Middletown,Kansas City,41.686938,-73.898822,39.014966,-94.312062,01_26_2023_07_48,01_26_2023_16_35
CAR,port washington,NY,11050,mission viejo,CA,92692,1700,COD/COP,2823,1,1993 mazda rx-7,Runs,ENCLOSED,2023-01-26,1708285,Not specified,Montway LLC,(224) 220-0003,dispatch@montway.com,100.0,New York - Northern New Jersey - Long Island,Los Angeles - Long Beach - Anaheim,40.837088,-73.694,33.604147,-117.646728,01_26_2023_07_48,01_26_2023_09_32
CAR,PLAINVIEW,NY,11803,WEST MONROE,LA,71291,1400,TWO_BUSINESS_DAYS,1364,1,2018 ferrari 488 gtb,Runs,ENCLOSED,2023-01-25,BS91387,Not specified,Blue Star Auto Movers,(954) 717-9884,dtorres@bluestarautomovers.com,99.9,New York - Northern New Jersey - Long Island,Monroe,40.782376,-73.47405,32.570157,-92.189907,01_26_2023_07_48,01_26_2023_16_35
CAR,penn yan,NY,14527,quincy,MA,02169,550,COD/COP,389,1,2020 dodge challenger,Runs,ENCLOSED,2023-01-27,1702058,Not specified,Montway LLC,(224) 220-0003,dispatch@montway.com,100.0,Rochester,Boston - Cambridge - Quincy,42.63018,-77.053579,42.242921,-71.009972,01_26_2023_07_48,01_26_2023_10_27
CAR,Oyster Bay,NY,11771,Evans,GA,30809,1050,COD/COP,826,1,2013 land rover lr4,Runs,ENCLOSED,2023-01-25,LR4EN-GA TEXT ONLY 913-215-3113,READY NOW TEXT ONLY 913-215-3113,airRyd LLC,(913) 215-3113,customerservice@airryd.com,100.0,New York - Northern New Jersey - Long Island,Augusta - Richmond County,40.875368,-73.52824,33.558757,-82.154005,01_26_2023_07_48,01_26_2023_09_39
SUV,Orchard Park,NY,14127,Sacramento,CA,95813,2300,TWO_BUSINESS_DAYS,2565,1,2019 bmw x6,Runs,ENCLOSED,2023-01-25,call    818-822-9498 or text,Not specified,Auction Connection,(818) 822-9498,mecautoinc@yahoo.com,99.7,Buffalo - Niagara Falls,Sacramento - Arden-Arcade - Roseville,42.739434,-78.736791,38.5817,-121.4934,01_26_2023_07_48,01_26_2023_08_26
SUV,Westbury,NY,11590,Marietta,GA,30067,885,COD/COP,918,1,2005 jeep liberty,Runs,ENCLOSED,2023-01-26,11007380,William todd(404) 806-1842,USA Carship Inc,(404) 835-7997,info@usacarship.com,96.8,New York - Northern New Jersey - Long Island,Atlanta - Sandy Springs - Marietta,40.756502,-73.580142,33.933184,-84.462904,01_26_2023_07_48,01_26_2023_16_35
CAR,Columbus,OH,43216,Cedar Rapids,IA,52401,700,COD/COP,576,1,2017 chevrolet camaro,Runs,ENCLOSED,2023-01-25,B108777,Not specified,Ace Logistics Group Holdings LLC,(850) 790-0280,dispatch@tigerautotransport.com,100.0,Columbus,Cedar Rapids,39.9633,-83.0023,41.974698,-91.655401,01_26_2023_07_48,01_26_2023_16_35
CAR,Westbury,NY,11590,Bay Shore,NY,11706,200,COD/COP,27,1,2022 bmw m4,Runs,ENCLOSED,2023-01-26,11133988,Ready to go confirmed,Dispatch Logistics LLC,(786) 490-2224,sales@dispatchl.com,100.0,New York - Northern New Jersey - Long Island,New York - Northern New Jersey - Long Island,40.756502,-73.580142,40.698754,-73.207605,01_26_2023_07_48,01_26_2023_16_35
SUV,Yonkers,NY,10703,New Orleans,LA,70124,1100,COD/COP,1325,1,2005 honda element,Runs,ENCLOSED,2023-01-26,11084414,Daniel || 404 551 4548 || ready to go ||,USA Carship Inc,(404) 835-7997,info@usacarship.com,96.8,New York - Northern New Jersey - Long Island,New Orleans - Metairie - Kenner,40.959226,-73.881584,30.083768,-90.098352,01_26_2023_07_48,01_26_2023_16_35
CAR,cleveland,OH,44192,reedsville,OH,45772,550,COD/COP,204,1,2016 chevrolet malibu,Runs,ENCLOSED,2023-01-25,30427461-st,jack 3159558558,SAFEEDS TRANSPORT INC,(315) 314-4337,info@safeeds.us,100.0,Cleveland - Elyria - Mentor,Not specified,41.4997,-81.6956,39.134398,-81.834564,01_26_2023_07_48,01_26_2023_16_35
CAR,Cleveland,OH,44101,San Francisco,CA,94188,1800,COD/COP,2480,1,1967 ford mustang,Runs,ENCLOSED,2023-01-24,67 mustang,Not specified,Shipperz Inc,(518) 836-7798,nick@shipperzinc.com,98.1,Cleveland - Elyria - Mentor,San Francisco - Oakland - Fremont,41.4995,-81.6959,37.7753,-122.4186,01_26_2023_07_48,01_26_2023_11_03
SUV,cleveland,OH,44118,new orleans,LA,70116,1000,COD/COP,1058,1,2014 audi sq5,Runs,ENCLOSED,2023-02-01,3873391-at,ready feb 1st,Ultimate Transport 123,(888) 885-9123 x3,dispatch@ultimatetransport123.com,100.0,Cleveland - Elyria - Mentor,New Orleans - Metairie - Kenner,41.504386,-81.554126,29.965815,-90.065678,01_26_2023_07_48,01_26_2023_16_35
CAR,cleveland,OH,44143,milwaukee,WI,53207,400,COD/COP,448,1,1978 ferrari 400gt,Runs,ENCLOSED,2023-01-27,31519463-je,calltext at 845262-6058,Elite Auto Shipping,(516) 559-5542 x5,serge@eliteautoshipping.com,99.6,Cleveland - Elyria - Mentor,Milwaukee - Waukesha - West Allis,41.558861,-81.477408,42.977949,-87.894146,01_26_2023_07_48,01_26_2023_16_35
PICKUP,cincinnati,OH,45246,panama city beach,FL,32407,1400,COD/COP,736,1,2022 chevrolet silverado 1500,Runs,ENCLOSED,2023-01-25,1706667,Not specified,Montway LLC,(224) 220-0003,dispatch@montway.com,100.0,Cincinnati - Middletown,Panama City - Lynn Haven,39.289123,-84.471212,30.212414,-85.794488,01_26_2023_07_48,01_26_2023_07_48
SUV,Cincinnati,OH,45202,Bradenton,FL,34209,950,COD/COP,961,1,2022 kia sorento,Runs,ENCLOSED,2023-01-26,10596776,Text/Call 954-982-7945 x31 *Actual Zip Codes 41042 to 34209,"Mercury Auto Transport, Inc.1",(954) 239-2597,matt@mercuryautotransport.com,99.9,Cincinnati - Middletown,North Port - Bradenton - Sarasota,39.109438,-84.488499,27.493626,-82.644394,01_26_2023_07_48,01_26_2023_09_26
PICKUP,cincinnati,OH,45246,mobile,AL,36601,1400,COD/COP,736,1,2022 chevrolet silverado 1500,Runs,ENCLOSED,2023-01-25,1710451,"actual del in panama city beach,fl 32407.",Montway LLC,(224) 220-0003,dispatch@montway.com,100.0,Cincinnati - Middletown,Mobile,39.289123,-84.471212,30.6945,-88.0431,01_26_2023_07_48,01_26_2023_07_48
SUV,Cincinnati,OH,45202,Fort Lauderdale,FL,33301,1050,COD/COP,1105,1,2023 audi q7,Runs,ENCLOSED,2023-01-27,10606876,Text or Call 954-289-3749,"Mercury Auto Transport, Inc.1",(954) 239-2597,matt@mercuryautotransport.com,99.9,Cincinnati - Middletown,Miami - Fort Lauderdale - Pompano Beach,39.109438,-84.488499,26.121115,-80.127232,01_26_2023_07_48,01_26_2023_14_23
CAR,Cincinnati,OH,45240,San Dimas,CA,91773,1300,COD/COP,2148,1,2020 chevrolet corvette,Runs,ENCLOSED,2023-01-31,CMN 55,347 299 3974-DISPATCH,Superior Quality Inc,(347) 299-3974,mikeautoship@verizon.net,100.0,Cincinnati - Middletown,Los Angeles - Long Beach - Anaheim,39.283052,-84.516793,34.115422,-117.812964,01_26_2023_07_48,01_26_2023_16_35
CAR,Cincinnati,OH,45241,Ypsilanti,MI,48197,500,COD/COP,232,1,2001 bmw m5,Runs,ENCLOSED,2023-01-30,BZ97419RR,Hard Side Enclosed Only,Enthusiast Auto Group LLC,513-748-9637,todd@eabmw.com,99.4,Cincinnati - Middletown,Ann Arbor,39.274287,-84.395428,42.201746,-83.621906,01_26_2023_07_48,01_26_2023_16_35
CAR,Chesterland,OH,44026,Buckeye,AZ,85396,1300,COD/COP,2112,1,2023 polaris rzr xp 1000,Runs,ENCLOSED,2023-01-30,10479103,CALL OR TEXT 954 536 5547,Nationwide Transport Services LLC,(754) 732-0333,central@nationwidetransportservices.com,100.0,Cleveland - Elyria - Mentor,Phoenix - Mesa - Glendale,41.534844,-81.317048,33.551108,-112.589754,01_26_2023_07_48,01_26_2023_16_35
CAR,Carlisle,OH,45005,Homer City,PA,15748,500,COD/COP,335,1,1979 chevrolet camaro,Runs,ENCLOSED,2023-01-25,79CAMA6418-PA,Not specified,Hansterers Hot Rods,(724) 915-8020,john@hanksters.com,100.0,Cincinnati - Middletown,Not specified,39.53117,-84.306658,40.521474,-79.115306,01_26_2023_07_48,01_26_2023_15_23
CAR,Canton,OH,44721,Lindale,TX,75771,1300,IMMEDIATELY,1121,1,2000 pontiac formula firehawk,Runs,ENCLOSED,2023-01-26,11134540,Same day pay,Haul Over Usa Inc,(724) 801-2629,rob-hauloverusa@outlook.com,100.0,Canton - Massillon,Tyler,40.891965,-81.324185,32.533769,-95.38966,01_26_2023_07_48,01_26_2023_08_58
CAR,canton,OH,44720,chula vista,CA,91911,1600,COD/COP,2405,1,2015 chevrolet camaro,Runs,ENCLOSED,2023-01-25,30904103-us,901 860-5994 call or text,US Star Trucking LLC,(865) 730-4992,usstartrucking@gmail.com,99.7,Canton - Massillon,San Diego - Carlsbad - San Marcos,40.896635,-81.434908,32.607009,-117.050286,01_26_2023_07_48,01_26_2023_10_57
CAR,Campbell,OH,44405,Santa Barbara,CA,93108,2500,FIFTEEN_BUSINESS_DAYS,2495,1,2015 bentley mulsanne,Runs,ENCLOSED,2023-01-26,9310-A,"Actual PU in Wexford , PA",Executive Auto Transport LLC,(774) 304-1197,executive.autotrans@gmail.com,99.9,Youngstown - Warren - Boardman,Santa Maria - Santa Barbara,41.077522,-80.591894,34.447871,-119.618561,01_26_2023_07_48,01_26_2023_09_36
SUV,Broadview Heights,OH,44147,Columbus,OH,43203,315,COD/COP,130,1,2014 ford escape,Inop,ENCLOSED,2023-01-26,11107048,ASAP || Ready for pickup || Bryan 404-496-4698,American Carship Inc,(404) 965-8775,info@americancarship.com,100.0,Cleveland - Elyria - Mentor,Columbus,41.314092,-81.67343,39.971834,-82.966754,01_26_2023_07_48,01_26_2023_16_35
CAR,Bellbrook,OH,45305,Sandston,VA,23150,725,COD/COP,515,1,1959 mg mga,Inop,ENCLOSED,2023-01-27,113628,http:iTruckify.com/rq5oa Rolls and steers,Safemile Auto Transport,(757) 271-8111,dispatch@safemileautotransport.com,100.0,Dayton - Kettering,Richmond,39.641282,-84.057878,37.503766,-77.263513,01_26_2023_07_48,01_26_2023_09_54
CAR,Bedford,OH,44146,Lufkin,TX,75901,1200,COD/COP,1180,1,2005 lamborghini gallardo,Runs,ENCLOSED,2023-01-28,Lambo,Not specified,Area 51 Motorsports LLC,(936) 414-2295,area51motorsportsemail@gmail.com,97.6,Cleveland - Elyria - Mentor,Not specified,41.389206,-81.536542,31.267118,-94.638488,01_26_2023_07_48,01_26_2023_16_35
CAR,Bedford,OH,44146,Tampa,FL,33614,1000,COD/COP,1080,1,1995 porsche 911,Runs,ENCLOSED,2023-01-24,95 911,Text 216-407-6320,Hyundai of Bedford,(704) 363-2728,kpisani@hyundaiofbedford.com,95.5,Cleveland - Elyria - Mentor,Tampa - St. Petersburg - Clearwater,41.389206,-81.536542,28.004875,-82.505808,01_26_2023_07_48,01_26_2023_13_24
CAR,Amelia,OH,45102,Aurora,CO,80014,1700,COD/COP,1211,1,2019 cadillac xts hearse,Runs,ENCLOSED,2023-01-25,11082049,Text Ethan (918)-894-6076 Check on Pick up,ASAP Transport Solutions LLC,(800) 757-1178,billing@asaptransportsolutions.com,100.0,Cincinnati - Middletown,Denver - Aurora,39.014958,-84.201598,39.6577,-104.845028,01_26_2023_07_48,01_26_2023_12_40
SUV,Alliance,OH,44601,Irving,TX,75063,1200,COD/COP,1198,1,2023 jeep grand cherokee,Runs,ENCLOSED,2023-01-26,10791181,Simon (404) 400-5293 || Ready for dispatch,USA Carship Inc,(404) 835-7997,info@usacarship.com,96.8,Canton - Massillon,Dallas - Fort Worth - Arlington,40.91726,-81.131786,32.919517,-96.977421,01_26_2023_07_48,01_26_2023_16_35
SUV,White Plains,NY,10601,Los Angeles,CA,90052,1600,COD/COP,2817,1,2024 bmw x5,Runs,ENCLOSED,2023-01-25,m00999988,Not specified,I5 Transporter LLC,(503) 999-9141,i5transporterdispatch@hotmail.com,99.1,New York - Northern New Jersey - Long Island,Los Angeles - Long Beach - Anaheim,41.031532,-73.764403,34.0522,-118.2429,01_26_2023_07_48,01_26_2023_12_49
CAR,Medford,OR,97504,Lodi,WI,53555,1301,TEN_BUSINESS_DAYS,2103,1,2021 ford mustang,Runs,ENCLOSED,2023-02-09,Ready 2-9,Not specified,American Auto Transfers LLC,(408) 418-2921,amautotransfers14@gmail.com,99.8,Medford,Madison,42.322754,-122.793404,43.315839,-89.561778,01_26_2023_07_48,01_26_2023_16_35
CAR,Myrtle Point,OR,97458,Palm Desert,CA,92211,1200,COD/COP,950,1,1958 chevrolet impala,Runs,ENCLOSED,2023-01-30,10627505,DEL 2/1 or later,AmeriFreight,(770) 574-4436,dispatchfax@amerifreight.net,99.9,Not specified,Riverside - San Bernardino - Ontario,43.087314,-123.986559,33.766397,-116.327934,01_26_2023_07_48,01_26_2023_13_05
CAR,oregon city,OR,97045,albany,NY,12210,1600,COD/COP,2937,1,1970 buick grand sport convertible,Runs,ENCLOSED,2023-01-25,249214-68255,"del: frankfort,ny 13340",Nexus AT LLC,(224) 265-0677,dispatch@nexusautotransport.com,99.9,Portland - Vancouver - Hillsboro,Albany - Schenectady - Troy,45.323633,-122.523197,42.659419,-73.757724,01_26_2023_07_48,01_26_2023_09_07
CAR,newport,RI,02840,rex,GA,30273,1077,COD/COP,1084,1,2020 bmw 430i convertible,Runs,ENCLOSED,2023-01-30,30527759-sf,no comment,SAFE AUTO TRUCKING LLC,(610) 871-7777,safeautotruckingcd@gmail.com,100.0,Providence - New Bedford - Fall River,Atlanta - Sandy Springs - Marietta,41.485043,-71.32447,33.584739,-84.272415,01_26_2023_07_48,01_26_2023_08_17
CAR,east providence,RI,02914,westlake village,CA,91361,1600,COD/COP,3009,1,2023 chevrolet corvette,Runs,ENCLOSED,2023-02-06,250202-68548,Not specified,Nexus AT LLC,(224) 265-0677,dispatch@nexusautotransport.com,99.9,Providence - New Bedford - Fall River,Oxnard - Thousand Oaks - Ventura,41.811429,-71.363076,34.149552,-118.878212,01_26_2023_07_48,01_26_2023_16_35
CAR,East Greenwich,RI,02818,Miamisburg,OH,45342,1000,COD/COP,810,1,1979 porsche 911,Runs,ENCLOSED,2023-02-08,10716833,Not specified,AmeriFreight,(770) 574-4436,dispatchfax@amerifreight.net,99.9,Providence - New Bedford - Fall River,Dayton - Kettering,41.643752,-71.477766,39.637398,-84.271815,01_26_2023_07_48,01_26_2023_16_35
SUV,cranston,RI,02921,denver,CO,80212,1950,COD/COP,1954,1,2018 porsche macan,Runs,ENCLOSED,2023-01-25,1698004,Not specified,Montway LLC,(224) 220-0003,dispatch@montway.com,100.0,Providence - New Bedford - Fall River,Denver - Aurora,41.761729,-71.517696,39.770568,-105.048645,01_26_2023_07_48,01_26_2023_08_13
CAR,Laval,QC,H7W 2T5,Tustin,CA,92780,3500,COD/COP,2844,1,1967 porsche 912,Runs,ENCLOSED,2023-01-30,2384,Not specified,Next Exit Auto Transport Services,(541) 885-2277,nextexitauto@gmail.com,100.0,Not specified,Los Angeles - Long Beach - Anaheim,45.519862,-73.757142,33.737629,-117.821174,01_26_2023_07_48,01_26_2023_16_35
CAR,Zelienople,PA,16063,Rigby,ID,83442,1600,TEN_BUSINESS_DAYS,1901,1,2019 chevrolet corvette,Runs,ENCLOSED,2023-01-24,Not specified,Not specified,Ensley & Son's Brokerage LLC,(910) 358-4738,matt@esbrokerage.com,100.0,Pittsburgh,Idaho Falls,40.7495,-80.120336,43.696306,-111.875281,01_26_2023_07_48,01_26_2023_16_35
CAR,Wexford,PA,15090,Santa Barbara,CA,93108,2500,FIFTEEN_BUSINESS_DAYS,2537,1,2015 bentley mulsanne,Runs,ENCLOSED,2023-01-26,9310,Not specified,Executive Auto Transport LLC,(774) 304-1197,executive.autotrans@gmail.com,99.9,Pittsburgh,Santa Maria - Santa Barbara,40.627036,-80.07888,34.447871,-119.618561,01_26_2023_07_48,01_26_2023_09_42
SUV,Wexford,PA,15090,Charleston,WV,25314,500,FIFTEEN_BUSINESS_DAYS,248,1,2023 maserati grecale,Runs,ENCLOSED,2023-01-26,9300-A,Not specified,Executive Auto Transport LLC,(774) 304-1197,executive.autotrans@gmail.com,99.9,Pittsburgh,Charleston,40.627036,-80.07888,38.287937,-81.666332,01_26_2023_07_48,01_26_2023_08_45
CAR,West Mifflin,PA,15122,Stockton,CA,95201,1500,COD/COP,2553,1,1969 mercury cougar,Inop,ENCLOSED,2023-01-26,10728536,Richard 470-560-3627 Asap need winch,USA Carship Inc,(404) 835-7997,info@usacarship.com,96.8,Pittsburgh,Stockton,40.362986,-79.901734,37.9578,-121.2897,01_26_2023_07_48,01_26_2023_16_35
CAR,west chester,PA,19382,seattle,WA,98109,2405,COD/COP,2794,1,2014 mercedes-benz c-class,Runs,ENCLOSED,2023-01-30,237935,email will@acmecarshipping.com to book move,Acme Auto Shipping,(469) 464-5725 x2,kevin@acmecarshipping.com,100.0,Philadelphia - Camden - Wilmington,Seattle - Tacoma - Bellevue,39.923246,-75.615631,47.634444,-122.3419,01_26_2023_07_48,01_26_2023_14_14
CAR,west chester,PA,19382,mission,TX,78573,1950,COD/COP,1893,1,2012 audi r8 gt,Runs,ENCLOSED,2023-01-26,30412550aa,dealer to customer,Advantage Auto Transport,(954) 254-0704,wisdom92@gmail.com,99.8,Philadelphia - Camden - Wilmington,McAllen - Edinburg - Mission,39.923246,-75.615631,26.300274,-98.29759,01_26_2023_07_48,01_26_2023_16_35
CAR,west chester,PA,19382,mission,TX,78573,1900,COD/COP,1893,1,2012 audi r8 gt,Runs,ENCLOSED,2023-01-23,30412550aa,dealer to customer,Advantage Auto Transport,(954) 254-0704,wisdom92@gmail.com,99.8,Philadelphia - Camden - Wilmington,McAllen - Edinburg - Mission,39.923246,-75.615631,26.300274,-98.29759,01_26_2023_07_48,01_26_2023_07_48
SUV,Washington,PA,15301,Seattle,WA,98188,1200,COD/COP,2542,1,2018 ford explorer,Runs,ENCLOSED,2023-01-26,10945445,ASAP 4137260924,Quickship LLC,(888) 361-5514,info@quickshipcars.com,98.2,Pittsburgh,Seattle - Tacoma - Bellevue,40.155184,-80.248404,47.44821,-122.277851,01_26_2023_07_48,01_26_2023_16_35
SUV,Washington,PA,15301,Seattle,WA,98188,2000,COD/COP,2542,1,2016 gmc yukon denali,Runs,ENCLOSED,2023-01-26,10919182,call /text 4137260924,Quickship LLC,(888) 361-5514,info@quickshipcars.com,98.2,Pittsburgh,Seattle - Tacoma - Bellevue,40.155184,-80.248404,47.44821,-122.277851,01_26_2023_07_48,01_26_2023_16_35
CAR,Washington,PA,15301,Hialeah,FL,33014,1500,TWO_BUSINESS_DAYS,1139,1,2023 mercedes-benz maybach s580,Runs,ENCLOSED,2023-01-25,JS45312,Dealer to dealer ask for Matt 774-855-1473,JS Transport Services Inc. 1,(888) 909-4550,info@jstransportservices.com,100.0,Pittsburgh,Miami - Fort Lauderdale - Pompano Beach,40.155184,-80.248404,25.904766,-80.300764,01_26_2023_07_48,01_26_2023_09_45
CAR,swarthmore,PA,19081,white plains,NY,10603,300,COD/COP,140,1,1971 lancia fulvia,Inop,ENCLOSED,2023-01-31,30412533-aa,customer to biz needs winch,Advantage Auto Transport,(954) 254-0704,wisdom92@gmail.com,99.8,Philadelphia - Camden - Wilmington,New York - Northern New Jersey - Long Island,39.896905,-75.346948,41.05778,-73.777229,01_26_2023_07_48,01_26_2023_16_35
SUV,state college,PA,16801,oceanside,CA,92057,2025,COD/COP,2619,1,2017 bmw x3,Runs,ENCLOSED,2023-01-28,28867,have contract down payment 702-342-1058,American Auto Shipping,(702) 342-1058,dispatch@americanautoshipping.com,100.0,State College,San Diego - Carlsbad - San Marcos,40.786815,-77.844376,33.252431,-117.286027,01_26_2023_07_48,01_26_2023_16_35
CAR,Pittsburgh,PA,15217,Phoenix,AZ,85027,1800,IMMEDIATELY,2097,1,2008 tesla roadster,Inop,ENCLOSED,2023-01-25,513-831-2600 x44692 Call/Text 6199778066,NEEDS WENCH // TOW MODE,Total Quality Logistics LLC,(513) 831-2600,carrierservices@tql.com,98.3,Pittsburgh,Phoenix - Mesa - Glendale,40.43045,-79.92035,33.678258,-112.099816,01_26_2023_07_48,01_26_2023_16_35
CAR,Pittsburgh,PA,15241,Basking Ridge,NJ,07920,400,COD/COP,350,1,1974 porsche 914,Inop,ENCLOSED,2023-01-25,11067533,"ready, txt 754-799-4790","Mercury Auto Transport, Inc.1",(954) 239-2597,matt@mercuryautotransport.com,99.9,Pittsburgh,New York - Northern New Jersey - Long Island,40.330906,-80.082836,40.676082,-74.56337,01_26_2023_07_48,01_26_2023_16_35
CAR,pittsburgh,PA,15236,lewisville,TX,75056,1425,COD/COP,1227,1,1957 mercedes-benz 190sl,Inop,ENCLOSED,2023-01-30,1706698,Not specified,Montway LLC,(224) 220-0003,dispatch@montway.com,100.0,Pittsburgh,Dallas - Fort Worth - Arlington,40.349776,-79.976521,33.072392,-96.907001,01_26_2023_07_48,01_26_2023_09_04
CAR,Pittsburgh,PA,15238,Forney,TX,75126,1300,COD/COP,1226,1,1974 detomaso pantera,Inop,ENCLOSED,2023-01-23,Pantera,Not specified,Earth Stone Of Raleigh,4697690063,porscheparts@yahoo.com,98.8,Pittsburgh,Dallas - Fort Worth - Arlington,40.535644,-79.872766,32.731367,-96.446328,01_26_2023_07_48,01_26_2023_16_35
CAR,Providence,RI,02906,Denver,CO,80211,1500,COD/COP,1958,1,2018 volvo s90 awd,Runs,ENCLOSED,2023-01-26,10806431,ASAP||Ready to Dispatch||Contract Sign||Marcus||4045514241,USA Carship Inc,(404) 835-7997,info@usacarship.com,96.8,Providence - New Bedford - Fall River,Denver - Aurora,41.83815,-71.393139,39.764131,-105.017788,01_26_2023_07_48,01_26_2023_13_58
CAR,Pittsburgh,PA,15238,Cape Girardeau,MO,63701,1100,COD/COP,0,1,1970 ford mustang,Runs,ENCLOSED,2023-01-23,TEXT  317-999-8176 FOR questions or dispatch,Not specified,Eclipse Auto Transport LLC,(317) 999-8176,joaniedevaney@gmail.com,99.9,Pittsburgh,Cape Girardeau - Jackson,40.535644,-79.872766,37.338206,-89.590786,01_26_2023_07_48,01_26_2023_11_58
CAR,Providence,RI,02904,Spokane,WA,99201,2500,TWO_BUSINESS_DAYS,2773,1,2012 chevrolet caprice,Inop,ENCLOSED,2023-01-23,RD48869,"Actual PU OXFORD, CT 06478 DEL CHENEY, WA 99004",RCG Logistics LLC 1,(916) 573-6599,ship@rcglogistics.com,100.0,Providence - New Bedford - Fall River,Spokane,41.854638,-71.437492,47.664781,-117.437532,01_26_2023_07_48,01_26_2023_16_35
SUV,Woonsocket,RI,02895,Richmond,TX,77406,1100,COD/COP,1851,1,2020 toyota highlander awd,Runs,ENCLOSED,2023-01-26,10753383,Harris || 404 400 2396,USA Carship Inc,(404) 835-7997,info@usacarship.com,96.8,Providence - New Bedford - Fall River,Houston - Sugar Land - Baytown,41.997922,-71.498851,29.5817,-95.7609,01_26_2023_07_48,01_26_2023_16_35
CAR,rock hill,SC,29730,aurora,CO,80010,1500,COD/COP,1561,1,1950 chevrolet truck,Runs,ENCLOSED,2023-01-30,1710735,"p/u in liberty,sc 29657.del in la junta,co 81050.",Montway LLC,(224) 220-0003,dispatch@montway.com,100.0,Charlotte - Gastonia - Rock Hill,Denver - Aurora,34.885711,-81.020911,39.739826,-104.856217,01_26_2023_07_48,01_26_2023_10_02
CAR,myrtle beach,SC,29579,ogden,UT,84403,1709,COD/COP,2252,1,2019 mercedes s560,Runs,ENCLOSED,2023-01-26,3963398-at,ready to go,Ultimate Transport 123,(888) 885-9123 x3,dispatch@ultimatetransport123.com,100.0,Myrtle Beach - Conway - North Myrtle Beach,Ogden - Clearfield,33.744235,-78.909453,41.176267,-111.913002,01_26_2023_07_48,01_26_2023_13_21
CAR,Myrtle Beach,SC,29577,Hamburg,NJ,07419,500,TWO_BUSINESS_DAYS,721,1,2022 navitas storm golf cart ( 11.5 ft - w 54 in - h 80 in ),Runs,ENCLOSED,2023-02-07,11154290,Delivery 2/9/23 or later,Shiplux LLC,(305) 517-3456,admin@shiplux.com,100.0,Myrtle Beach - Conway - North Myrtle Beach,New York - Northern New Jersey - Long Island,33.698113,-78.903338,41.152966,-74.571815,01_26_2023_07_48,01_26_2023_16_35
CAR,myrtle beach,SC,29572,bartlett,TN,38002,550,COD/COP,757,1,1956 mg mga,Runs,ENCLOSED,2023-01-25,4227556,call/txt 3027633040,Getcarrier LLC,(203) 774-9777,dispatch@getcarrier.com,99.9,Myrtle Beach - Conway - North Myrtle Beach,Memphis,33.765429,-78.795692,35.2922,-89.719908,01_26_2023_07_48,01_26_2023_09_42
CAR,Myrtle Beach,SC,29577,Norwalk,CT,06851,700,TWO_BUSINESS_DAYS,710,1,2022 navitas storm golf cart ( 11.5 ft - w 54 in - h 80 in ),Runs,ENCLOSED,2023-01-30,11153673,P/U Monday 1/30,Shiplux LLC,(305) 517-3456,admin@shiplux.com,100.0,Myrtle Beach - Conway - North Myrtle Beach,Bridgeport - Stamford - Norwalk,33.698113,-78.903338,41.139682,-73.405374,01_26_2023_07_48,01_26_2023_16_35
SUV,Myrtle Beach,SC,29575,Atlanta,GA,30310,450,COD/COP,365,1,1916 ford model t,Inop,ENCLOSED,2023-02-01,10627009,Not specified,Eship Corp,(754) 222-5377,info@eshiptransport.com,98.7,Myrtle Beach - Conway - North Myrtle Beach,Atlanta - Sandy Springs - Marietta,33.62789,-78.967328,33.724113,-84.43129,01_26_2023_07_48,01_26_2023_16_35
CAR,Mount Pleasant,SC,29466,Riverbank,CA,95367,1865,FIVE_BUSINESS_DAYS,2726,1,1969 chevrolet camaro,Runs,ENCLOSED,2023-02-07,10803488,Not specified,ShipYourCarNow LLC,(917) 933-5723,cdfdtest@shipyourcarnow.com,99.8,Charleston - North Charleston,Modesto,32.861784,-79.795762,37.732714,-120.947489,01_26_2023_07_48,01_26_2023_08_17
CAR,moncks corner,SC,29461,crown point,IN,46307,700,COD/COP,852,1,2023 golf cart,Runs,ENCLOSED,2023-01-26,30416799-st,315 849-1190 calltxt asap,SAFEEDS TRANSPORT INC,(315) 314-4337,info@safeeds.us,100.0,Charleston - North Charleston,Chicago - Naperville - Joliet,33.152023,-80.015996,41.396923,-87.324818,01_26_2023_07_48,01_26_2023_09_36
CAR,liberty,SC,29657,la junta,CO,81050,1500,COD/COP,1458,1,1950 chevrolet truck,Runs,ENCLOSED,2023-01-30,1710662,Not specified,Montway LLC,(224) 220-0003,dispatch@montway.com,100.0,Greenville - Mauldin - Easley,Not specified,34.763606,-82.684718,37.954192,-103.529407,01_26_2023_07_48,01_26_2023_11_03
SUV,hilton head island,SC,29928,warrington,PA,18976,625,COD/COP,743,1,2023 porsche cayenne gts coupe,Runs,ENCLOSED,2023-01-26,30412568aa,customer to dealer,Advantage Auto Transport,(954) 254-0704,wisdom92@gmail.com,99.8,Not specified,Philadelphia - Camden - Wilmington,32.172838,-80.748747,40.249212,-75.144388,01_26_2023_07_48,01_26_2023_08_48
SUV,hilton head island,SC,29928,warrington,PA,18976,600,COD/COP,743,1,2023 porsche cayenne gts coupe,Runs,ENCLOSED,2023-01-25,30412568aa,customer to dealer,Advantage Auto Transport,(954) 254-0704,wisdom92@gmail.com,99.8,Not specified,Philadelphia - Camden - Wilmington,32.172838,-80.748747,40.249212,-75.144388,01_26_2023_07_48,01_26_2023_07_48
CAR,Hilton Head,SC,29928,Panama City Beach,FL,32413,500,TEN_BUSINESS_DAYS,453,1,2020 moke moke,Runs,ENCLOSED,2023-01-30,7163,Book on super-lb.com/J2Dqk2,T&J Auto Transport,(843) 757-6750,tracey@tjautotransport.com,99.9,Not specified,Panama City - Lynn Haven,32.172838,-80.748747,30.309241,-85.936658,01_26_2023_07_48,01_26_2023_16_35
SUV,hardeeville,SC,29927,westlake village,CA,91361,2250,COD/COP,2477,1,2020 lexus lx570,Runs,ENCLOSED,2023-01-25,247794-67742,Not specified,Nexus AT LLC,(224) 265-0677,dispatch@nexusautotransport.com,99.9,Not specified,Oxnard - Thousand Oaks - Ventura,32.251824,-81.021977,34.149552,-118.878212,01_26_2023_07_48,01_26_2023_08_13
CAR,greer,SC,29650,myrtle beach,SC,29572,550,COD/COP,257,1,2023 bmw m4,Runs,ENCLOSED,2023-02-01,1706664,call/text 224-300-5380,Montway LLC,(224) 220-0003,dispatch@montway.com,100.0,Greenville - Mauldin - Easley,Myrtle Beach - Conway - North Myrtle Beach,34.900123,-82.267104,33.765429,-78.795692,01_26_2023_07_48,01_26_2023_16_35
CAR,greenville,SC,29607,carson,CA,90746,1600,COD/COP,2341,1,2020 mercedes-benz g-class,Runs,ENCLOSED,2023-01-25,7847459,Not specified,Acertus,(314) 334-3400,dispatch@metrogistics.com,99.9,Greenville - Mauldin - Easley,Los Angeles - Long Beach - Anaheim,34.803774,-82.321517,33.860848,-118.257065,01_26_2023_07_48,01_26_2023_16_35
CAR,Greenville,SC,29607,Elgin,SC,29045,200,FIVE_BUSINESS_DAYS,120,1,2023 porsche 911,Runs,ENCLOSED,2023-02-03,12318 .. $250k min cargo,321-586-2262 for dispatch,Shaw Auto Carriers Com LLC,(321) 914-8334,ridewithshaw@gmail.com,100.0,Greenville - Mauldin - Easley,Columbia,34.803774,-82.321517,34.191438,-80.813086,01_26_2023_07_48,01_26_2023_16_35
CAR,columbia,SC,29212,west covina,CA,91791,1500,COD/COP,2370,1,1965 ford mustang,Runs,ENCLOSED,2023-01-27,29103677,call or text 561 807 7484,Lightning Auto Carriers,(561) 807-7484,jmv7784@yahoo.com,99.4,Columbia,Los Angeles - Long Beach - Anaheim,34.08797,-81.198659,34.062023,-117.887351,01_26_2023_07_48,01_26_2023_14_58
SUV,charleston,SC,29401,westlake village,CA,91361,2250,COD/COP,2534,1,2020 lexus lx570,Runs,ENCLOSED,2023-01-25,247794-67744,"origin: hardeeville,sc 29927",Nexus AT LLC,(224) 265-0677,dispatch@nexusautotransport.com,99.9,Charleston - North Charleston,Oxnard - Thousand Oaks - Ventura,32.777596,-79.941923,34.149552,-118.878212,01_26_2023_07_48,01_26_2023_08_17
CAR,charleston,SC,29407,olympia,WA,98516,2200,COD/COP,3035,1,2023 cadillac ct5-v blackwing,Runs,ENCLOSED,2023-01-25,367594,call 772-240-3103,Nationwide Transport Services LLC,(754) 732-0333,central@nationwidetransportservices.com,100.0,Charleston - North Charleston,Olympia,32.801241,-79.99479,47.113056,-122.770108,01_26_2023_07_48,01_26_2023_16_35
CAR,boiling springs,SC,29316,las vegas,NV,89179,1800,COD/COP,2143,1,2014 infiniti q45,Runs,ENCLOSED,2023-01-27,30452120-ob,pu by 27th call me at 3022062322,Ocean Blue Logistics,(302) 206-2686,info@oceanbluego.com,99.2,Spartanburg,Las Vegas - Paradise,35.041985,-81.975943,35.991082,-115.251368,01_26_2023_07_48,01_26_2023_08_51
CAR,aiken,SC,29801,chula vista,CA,91915,1250,COD/COP,2317,1,2023 chevrolet corvette,Runs,ENCLOSED,2023-01-31,1705667,Not specified,Montway LLC,(224) 220-0003,dispatch@montway.com,100.0,Augusta - Richmond County,San Diego - Carlsbad - San Marcos,33.601929,-81.661132,32.619934,-116.96712,01_26_2023_07_48,01_26_2023_13_02
CAR,Warwick,RI,02886,Palm Beach,FL,33480,850,COD/COP,1401,1,2017 mercedes-benz slc,Runs,ENCLOSED,2023-01-26,10491041,Not specified,GP Auto Logistics,(512) 503-1654,info@gpautologistics.com,98.4,Providence - New Bedford - Fall River,Miami - Fort Lauderdale - Pompano Beach,41.705329,-71.460974,26.678858,-80.039237,01_26_2023_07_48,01_26_2023_16_35
CAR,Pittsburgh,PA,15206,Baltimore,MD,21224,675,COD/COP,249,1,1968 mercedes-benz 190-class,Runs,ENCLOSED,2023-01-26,Danny- port,Not specified,World Pac Logistics Inc,(201) 250-2509,roro@worldpaclogistics.com,99.2,Pittsburgh,Baltimore - Towson,40.46771,-79.911112,39.278452,-76.534232,01_26_2023_07_48,01_26_2023_16_35
SUV,Philadelphia,PA,19124,Pecos,TX,79772,2000,COD/COP,1916,1,2019 cadillac escalade esv,Runs,ENCLOSED,2023-01-26,10924821,Not specified,Eship Corp,(754) 222-5377,info@eshiptransport.com,98.7,Philadelphia - Camden - Wilmington,Not specified,40.01708,-75.09426,31.541389,-103.556619,01_26_2023_07_48,01_26_2023_16_35
SUV,philadelphia,PA,19116,medina,WA,98039,2500,COD/COP,2817,1,2022 ford bronco,Runs,ENCLOSED,2023-01-25,30681983bw,at mahwah nj 07430 alex 646-777-1178,Brookwide Inc,(929) 592-3070,autodispatch@brookwide.com,99.8,Philadelphia - Camden - Wilmington,Seattle - Tacoma - Bellevue,40.116375,-75.014144,47.627636,-122.24317,01_26_2023_07_48,01_26_2023_09_17
CAR,Cheswick,PA,15024,Huntsville,AL,35813,1100,COD/COP,699,1,1972 chevrolet chevelle,Runs,ENCLOSED,2023-01-25,chevelle,Not specified,Shipperz Inc,(518) 836-7798,nick@shipperzinc.com,98.1,Pittsburgh,Huntsville,40.580282,-79.845276,34.6733,-86.7521,01_26_2023_07_48,01_26_2023_08_26
SUV,chester,PA,19016,kennesaw,GA,30144,850,COD/COP,798,1,2021 infiniti qx80,Runs,ENCLOSED,2023-01-26,30606511-dn,call or text 786-870-4301,Dynamic Auto Movers LLC,(305) 204-9559,support@dynamicautomovers.com,100.0,Philadelphia - Camden - Wilmington,Atlanta - Sandy Springs - Marietta,39.8495,-75.3563,34.033302,-84.597721,01_26_2023_07_48,01_26_2023_08_38
CAR,Chambersburg,PA,17201,Venice,FL,34292,1060,FIVE_BUSINESS_DAYS,1060,1,1966 chevrolet corvette,Runs,ENCLOSED,2023-01-27,Order #770K Call/Text Kellie 714-308-8157,Not specified,Executive Motor Coach,(859) 414-8298,lloyd@emotorc.com,100.0,Not specified,North Port - Bradenton - Sarasota,39.931062,-77.658566,27.09536,-82.336919,01_26_2023_07_48,01_26_2023_16_35
SUV,Bryn Athyn,PA,19009,Longboat Key,FL,34228,1100,COD/COP,1119,1,2018 cadillac escalade,Runs,ENCLOSED,2023-01-30,Signed contract -65-call/text 561-853-6822,Not specified,Truthful Transport Inc,(855) 744-7878,tdsuccessone@hotmail.com,98.0,Philadelphia - Camden - Wilmington,North Port - Bradenton - Sarasota,40.137059,-75.066766,27.385102,-82.636254,01_26_2023_07_48,01_26_2023_16_35
CAR,bristol,PA,19007,saint michael,MN,55376,350,COD/COP,1211,1,1968 chevrolet chevelle hood and driveshaft only,Inop,ENCLOSED,2023-01-23,28782883,denise call/txt 352-398-9852 only a hood driveshaft an,All Coast Auto Transport,(561) 288-6260,allcoastauto@hotmail.com,99.9,Philadelphia - Camden - Wilmington,Minneapolis - St. Paul - Bloomington,40.116456,-74.843662,45.202136,-93.657541,01_26_2023_07_48,01_26_2023_16_35
PICKUP,Apollo,PA,15613,Plymouth,IN,46563,675,COD/COP,425,1,1968 ford f250 (runs and drives),Runs,ENCLOSED,2023-01-25,11132461,call/text ur company name pu/delivery date to 786-797-7694,"Mercury Auto Transport, Inc.1",(954) 239-2597,matt@mercuryautotransport.com,99.9,Pittsburgh,Not specified,40.547914,-79.555875,41.35966,-86.310828,01_26_2023_07_48,01_26_2023_09_23
CAR,Allison Park,PA,15101,Southlake,TX,76092,1400,COD/COP,1263,1,2010 porsche 911,Runs,ENCLOSED,2023-02-01,7308,Diane at 469-888-8854 MUST pickup either 2/1 or 2/2,T&J Auto Transport,(843) 757-6750,tracey@tjautotransport.com,99.9,Pittsburgh,Dallas - Fort Worth - Arlington,40.576388,-79.950646,32.951594,-97.150991,01_26_2023_07_48,01_26_2023_16_35
CAR,Turner,OR,97392,San Diego,CA,92139,900,COD/COP,1037,1,1953 ford mainline,Runs,ENCLOSED,2023-01-26,11106167,Text or Call (754) 273-5332,"Mercury Auto Transport, Inc.1",(954) 239-2597,matt@mercuryautotransport.com,99.9,Salem,San Diego - Carlsbad - San Marcos,44.788832,-122.942138,32.679887,-117.047059,01_26_2023_07_48,01_26_2023_11_30
CAR,troutdale,OR,97060,san jose,CA,95121,650,COD/COP,687,1,2017 porsche 911,Runs,ENCLOSED,2023-01-30,30570781-uf,no comment,United Freeway Transportation LLC,(610) 756-7472,uftransportation2021@gmail.com,99.8,Portland - Vancouver - Hillsboro,San Jose - Sunnyvale - Santa Clara,45.528908,-122.360037,37.303173,-121.807734,01_26_2023_07_48,01_26_2023_16_35
PICKUP,Salem,OR,97309,Porter,OK,74454,1600,COD/COP,2025,1,1933 ford pickup,Inop,ENCLOSED,2022-11-30,needs at least a day or 2 notice for picking up,Not specified,Larry's Auto Trans,(541) 474-3508,4larrysautotransport@gmail.com,99.6,Salem,Tulsa,44.9431,-123.0336,35.85998,-95.48735,01_26_2023_07_48,01_26_2023_16_35
CAR,Portland,OR,97225,Burke,VA,22015,1550,COD/COP,2822,1,2016 audi a8,Runs,ENCLOSED,2023-01-25,026572-GAT,Call 818-309-1372. TEXT 818-839-0810,Global Auto Transportation,(818) 476-5005,info@globalautotransportation.com,100.0,Portland - Vancouver - Hillsboro,Washington - Arlington - Alexandria,45.500519,-122.779164,38.785306,-77.286075,01_26_2023_07_48,01_26_2023_09_23
CAR,portland,OR,97239,seattle,WA,98134,500,TWO_BUSINESS_DAYS,180,1,2022 lucid air,Runs,ENCLOSED,2023-01-30,ula6012240,Please call or text for more info & dispatch (708) 441-3342,Usko Logistics Inc,(708) 441-3342,alice@uskologistics.com,100.0,Portland - Vancouver - Hillsboro,Seattle - Tacoma - Bellevue,45.48798,-122.692654,47.571247,-122.337752,01_26_2023_07_48,01_26_2023_13_27
CAR,Portland,OR,97205,Reno,NV,89511,850,COD/COP,593,1,2005 porsche 911 cabriolet (996),Runs,ENCLOSED,2023-01-25,675518,Not specified,Grand Prix Motors Inc,(503) 380-5784,otologisticsllc@gmail.com,98.9,Portland - Vancouver - Hillsboro,Reno - Sparks,45.515476,-122.698767,39.368173,-119.871506,01_26_2023_07_48,01_26_2023_12_40
CAR,Portland,OR,97225,Philadelphia,PA,19104,1550,COD/COP,2874,1,2016 audi a8,Runs,ENCLOSED,2023-01-25,026572-GAT Actual drop of Burke VA,Call 818-309-1372. TEXT 818-839-0810,Global Auto Transportation,(818) 476-5005,info@globalautotransportation.com,100.0,Portland - Vancouver - Hillsboro,Philadelphia - Camden - Wilmington,45.500519,-122.779164,39.964046,-75.197184,01_26_2023_07_48,01_26_2023_09_20
CAR,Portland,OR,97229,Edison,NJ,08820,1800,COD/COP,2906,1,2020 tesla model y,Runs,ENCLOSED,2023-01-25,678546,Not specified,Regal Auto Transport,(954) 727-1866,regalautotransport@gmail.com,99.4,Portland - Vancouver - Hillsboro,New York - Northern New Jersey - Long Island,45.554376,-122.811306,40.576904,-74.367461,01_26_2023_07_48,01_26_2023_08_23
PICKUP,Portland,OR,97227,Henderson,NV,89014,2100,TEN_BUSINESS_DAYS,1064,1,"2022 ford f-150 heritage, raptor 86.6 inches wide",Runs,ENCLOSED,2023-01-24,452383,Not specified,Car-Go - AZ,(602) 393-2321,ops@gocar-go.com,100.0,Portland - Vancouver - Hillsboro,Las Vegas - Paradise,45.540279,-122.676962,36.058827,-115.057395,01_26_2023_07_48,01_26_2023_16_35
PICKUP,portland,OR,97229,colorado springs,CO,80922,1350,COD/COP,1339,1,2019 honda ridgeline (enclosed),Runs,ENCLOSED,2023-01-31,241412,to book load email jarvis@acmecarshipping.com,Acme Auto Shipping,(469) 464-5725 x2,kevin@acmecarshipping.com,100.0,Portland - Vancouver - Hillsboro,Colorado Springs,45.554376,-122.811306,38.889456,-104.700522,01_26_2023_07_48,01_26_2023_09_54
CAR,Portland,OR,97225,Baltimore,MD,21202,1550,COD/COP,2818,1,2016 audi a8,Runs,ENCLOSED,2023-01-25,026572-GAT Actual drop of Burke VA,Call 818-309-1372. TEXT 818-839-0810,Global Auto Transportation,(818) 476-5005,info@globalautotransportation.com,100.0,Portland - Vancouver - Hillsboro,Baltimore - Towson,45.500519,-122.779164,39.295824,-76.607773,01_26_2023_07_48,01_26_2023_09_20
CAR,portland,OR,97229,cedar park,TX,78613,1100,COD/COP,2083,1,2023 kia ev6,Runs,ENCLOSED,2023-02-06,144818,Not specified,SGT Auto Transport,(864) 546-5038,sgtautotransport@gmail.com,99.9,Portland - Vancouver - Hillsboro,Austin - Round Rock - San Marcos,45.554376,-122.811306,30.497998,-97.815694,01_26_2023_07_48,01_26_2023_16_35
CAR,oregon city,OR,97045,frankfort,NY,13340,1600,COD/COP,2854,1,1970 buick grand sport convertible,Runs,ENCLOSED,2023-01-25,249214-68248,Not specified,Nexus AT LLC,(224) 265-0677,dispatch@nexusautotransport.com,99.9,Portland - Vancouver - Hillsboro,Utica - Rome,45.323633,-122.523197,43.037567,-75.114786,01_26_2023_07_48,01_26_2023_09_07
CAR,oregon city,OR,97045,syracuse,NY,13202,1600,COD/COP,2799,1,1970 buick grand sport convertible,Runs,ENCLOSED,2023-01-25,249214-68256,"del: frankfort,ny 13340",Nexus AT LLC,(224) 265-0677,dispatch@nexusautotransport.com,99.9,Portland - Vancouver - Hillsboro,Syracuse,45.323633,-122.523197,43.04308,-76.150601,01_26_2023_07_48,01_26_2023_10_14
CAR,Columbus,PA,16405,Miami,FL,33157,1300,FIVE_BUSINESS_DAYS,1323,1,2022 ford gt 500,Runs,ENCLOSED,2023-01-25,9809,Not specified,Freedom Logistics,(229) 529-4069,dispatch@freedomlogistics.us,99.5,Not specified,Miami - Fort Lauderdale - Pompano Beach,41.945794,-79.550624,25.60441,-80.335216,01_26_2023_07_48,01_26_2023_10_14
CAR,Curryville,PA,16631,Jamaica,IA,50128,1225,COD/COP,924,1,1978 chevrolet corvette,Runs,ENCLOSED,2023-01-25,23-011T,***ENCLOSED***,United Container Line,(305) 591-7331,dsmith@unitedcontainerline.com,100.0,Altoona,Des Moines - West Des Moines,40.276866,-78.348697,41.852426,-94.297022,01_26_2023_07_48,01_26_2023_08_26
SUV,Downingtown,PA,19335,fort worth,TX,76107,1250,TEN_BUSINESS_DAYS,1495,1,2021 bmw x7 sports activity vehicle,Runs,ENCLOSED,2023-01-22,26367,text russ 3347918520  mike 3346851741,Culver Carriers Brokerage LLC,(334) 698-0010,culvercarriers@yahoo.com,99.8,Philadelphia - Camden - Wilmington,Dallas - Fort Worth - Arlington,40.031224,-75.72096,32.74308,-97.378045,01_26_2023_07_48,01_26_2023_16_35
CAR,Duryea,PA,18642,Highland,CA,92346,1600,COD/COP,2663,1,1924 ford model t,Inop,ENCLOSED,2023-01-25,S 3285 COUPE,Not specified,A Unique Transport,(424) 238-2238,autjtracker@gmail.com,100.0,Scranton - Wilkes-Barre,Riverside - San Bernardino - Ontario,41.35446,-75.773762,34.119831,-117.168928,01_26_2023_07_48,01_26_2023_08_55
SUV,Philadelphia,PA,19104,Nashville,TN,37230,1600,FIFTEEN_BUSINESS_DAYS,824,1,2023 nissan ariya,Runs,ENCLOSED,2023-01-26,22089-man3,Please call Micole (786) 259-0254,United Routes LLC,(866) 352-8180 x2,dispatch@unitedroutes.com,99.8,Philadelphia - Camden - Wilmington,Nashville-Davidson - Murfreesboro - Franklin,39.964046,-75.197184,36.1656,-86.7845,01_26_2023_07_48,01_26_2023_08_29
CAR,Philadelphia,PA,19120,Houston,TX,77025,845,COD/COP,1576,1,2020 chevrolet corvette,Runs,ENCLOSED,2023-01-26,9252582,Emily||470-968-9036|| ready for pickup,USA Carship Inc,(404) 835-7997,info@usacarship.com,96.8,Philadelphia - Camden - Wilmington,Houston - Sugar Land - Baytown,40.03331,-75.117491,29.679892,-95.43108,01_26_2023_07_48,01_26_2023_16_35
CAR,pennsburg,PA,18073,bunn,NC,27508,325,COD/COP,435,1,2008 mercedes-benz 300,Runs,ENCLOSED,2023-01-15,30454277-ug,call or text 786-785-7476,United Global Assets Inc,(786) 785-7009,mywaydhighway91@live.com,100.0,Philadelphia - Camden - Wilmington,Raleigh - Cary,40.387285,-75.482917,35.959052,-78.247241,01_26_2023_07_48,01_26_2023_16_35
PICKUP,Oil City,PA,16301,Hampton,VA,23666,1100,TEN_BUSINESS_DAYS,483,1,1979 gmc sierra,Runs,ENCLOSED,2023-02-06,11051630,Not specified,ShipYourCarNow LLC,(917) 933-5723,cdfdtest@shipyourcarnow.com,99.8,Not specified,Virginia Beach - Norfolk - Newport News,41.426585,-79.636946,37.062782,-76.40522,01_26_2023_07_48,01_26_2023_16_35
CAR,North East,PA,16428,Jayess,MS,39641,1000,COD/COP,1098,1,1995 chevrolet impala,Runs,ENCLOSED,2023-01-26,Not specified,Not specified,NFI Empire Custom Built Jeeps,(814) 520-9456,shea@nfiempire.com,100.0,Erie,Not specified,42.177695,-79.846599,31.373161,-90.17137,01_26_2023_07_48,01_26_2023_16_35
CAR,newtown square,PA,19073,spring,TX,77382,1600,COD/COP,1570,1,2022 porsche macan gts,Runs,ENCLOSED,2023-01-26,369235,2 day quick pay call/text 954-246-3732,Nationwide Transport Services LLC,(754) 732-0333,central@nationwidetransportservices.com,100.0,Philadelphia - Camden - Wilmington,Houston - Sugar Land - Baytown,39.984018,-75.436288,30.199368,-95.534951,01_26_2023_07_48,01_26_2023_08_04
PICKUP,New Castle,PA,16105,Phoenix,MD,21131,550,TWO_BUSINESS_DAYS,312,1,2022 ford f-150 lightning,Runs,ENCLOSED,2023-01-27,04B6768B,Must use the Autosled APP/BOL to get paid in 2 business days,Autosled Inc,(240) 880-2711,transport@autosled.com,99.7,Not specified,Baltimore - Towson,41.054103,-80.331032,39.499744,-76.572318,01_26_2023_07_48,01_26_2023_16_35
CAR,Moscow,PA,18444,Palm Beach Gardens,FL,33410,1100,COD/COP,1229,1,2008 maserati granturismo,Runs,ENCLOSED,2023-01-29,text 270-853-5420 to book,Not specified,"Scotts Dispatch 4-U Service, Inc.",(866) 314-1357,dispatch@scottsautocarrier.com,99.7,Scranton - Wilkes-Barre,Miami - Fort Lauderdale - Pompano Beach,41.332148,-75.549782,26.845719,-80.085858,01_26_2023_07_48,01_26_2023_16_35
CAR,Morgantown,PA,19543,Mankato,KS,66956,1300,FIFTEEN_BUSINESS_DAYS,1283,1,2010 chevrolet camaro,Runs,ENCLOSED,2023-01-25,96ISHTM,DISPATCH CALL OR TEXT 954-805-4734,American Auto Transport,(954) 278-3873,dispatch@autotransportaat.com,99.8,Reading,Not specified,40.171508,-75.89692,39.784836,-98.217679,01_26_2023_07_48,01_26_2023_08_55
CAR,Meshoppen,PA,18630,Las Vegas,NV,89138,1800,COD/COP,2452,1,2021 can am maverick x3 xrc,Runs,ENCLOSED,2023-01-26,10602276,Please call/text Noah @ 786 577 5176,AutoStar Transport Express LLC,(888) 802-8250,dispatch@autostartransport.com,100.0,Not specified,Las Vegas - Paradise,41.686346,-75.99036,36.168458,-115.360754,01_26_2023_07_48,01_26_2023_16_35
SUV,Orchard Park,NY,14127,Charlotte,NC,28202,1300,THIRTY_BUSINESS_DAYS,657,1,2019 land rover range rover,Runs,ENCLOSED,2023-01-26,SL-55,Book on super-lb.com/7njKPr,Shazier Logistics LLC,(814) 308-0979,andre@shazierlogistics.com,100.0,Buffalo - Niagara Falls,Charlotte - Gastonia - Rock Hill,42.739434,-78.736791,35.227646,-80.84375,01_26_2023_07_48,01_26_2023_09_14
CAR,Mars,PA,16046,Saint Ann,MO,63074,1000,COD/COP,630,1,1956 continental mark 2,Runs,ENCLOSED,2023-01-24,CASEY OR KAITLYN,HARDSIDE ONLY,Daniel Schmitt & Co,314-291-7000,info@schmitt.com,98.3,Pittsburgh,St. Louis,40.701419,-80.044534,38.72658,-90.389026,01_26_2023_07_48,01_26_2023_08_58
CAR,Levittown,PA,19054,Irmo,SC,29063,950,COD/COP,658,1,2015 chevrolet corvette,Runs,ENCLOSED,2023-02-08,29139067,http:iTruckify.com/pj6qe 2/8 - 2/9 only,Easy Auto Ship LLC,(330) 208-2431,dispatch@easyautoship.net,100.0,Philadelphia - Camden - Wilmington,Columbia,40.16751,-74.822186,34.142575,-81.215952,01_26_2023_07_48,01_26_2023_16_35
CAR,Langhorne,PA,19047,Marco Island,FL,34145,1100,IMMEDIATELY,1252,1,2017 subaru outback,Runs,ENCLOSED,2023-01-27,Leon,Not specified,ICJ LLC,(347) 909-1934,louisadurante@gmail.com,91.2,Philadelphia - Camden - Wilmington,Naples - Marco Island,40.177719,-74.890955,25.93777,-81.699725,01_26_2023_07_48,01_26_2023_10_05
CAR,langhorne,PA,19047,muncie,IN,47304,775,COD/COP,634,1,1994 ford mustang,Runs,ENCLOSED,2023-01-30,249150-68591,Not specified,Nexus AT LLC,(224) 265-0677,dispatch@nexusautotransport.com,99.9,Philadelphia - Camden - Wilmington,Muncie,40.177719,-74.890955,40.23879,-85.46398,01_26_2023_07_48,01_26_2023_16_35
CAR,langhorne,PA,19047,indianapolis,IN,46208,775,COD/COP,660,1,1994 ford mustang,Runs,ENCLOSED,2023-01-30,249150-68592,"destination: muncie,in 47304",Nexus AT LLC,(224) 265-0677,dispatch@nexusautotransport.com,99.9,Philadelphia - Camden - Wilmington,Indianapolis - Carmel,40.177719,-74.890955,39.832028,-86.176608,01_26_2023_07_48,01_26_2023_16_35
CAR,langhorne,PA,19047,chicago,IL,60606,775,COD/COP,772,1,1994 ford mustang,Runs,ENCLOSED,2023-01-30,249150-68593,"destination: muncie,in 47304",Nexus AT LLC,(224) 265-0677,dispatch@nexusautotransport.com,99.9,Philadelphia - Camden - Wilmington,Chicago - Naperville - Joliet,40.177719,-74.890955,41.882934,-87.636843,01_26_2023_07_48,01_26_2023_16_35
CAR,Indiana,PA,15701,Amite,LA,70422,1200,COD/COP,1127,1,2008 ford mustang,Runs,ENCLOSED,2023-01-24,PLEASE TEXT 317-999-8176 for questions or dispatch,Not specified,Eclipse Auto Transport LLC,(317) 999-8176,joaniedevaney@gmail.com,99.9,Not specified,Not specified,40.620555,-79.144662,30.739334,-90.563257,01_26_2023_07_48,01_26_2023_16_35
CAR,indiana,PA,15701,saline,MI,48176,500,COD/COP,327,1,1966 pontiac gto,Runs,ENCLOSED,2023-01-25,314005,Not specified,Eclipse Auto Transport LLC,(317) 999-8176,joaniedevaney@gmail.com,99.9,Not specified,Ann Arbor,40.620555,-79.144662,42.144392,-83.817346,01_26_2023_07_48,01_26_2023_14_04
CAR,huntingdon valley,PA,19006,miami,FL,33178,900,COD/COP,1232,1,2021 porsche boxster,Runs,ENCLOSED,2023-02-03,248475-68295,Not specified,Nexus AT LLC,(224) 265-0677,dispatch@nexusautotransport.com,99.9,Philadelphia - Camden - Wilmington,Miami - Fort Lauderdale - Pompano Beach,40.128576,-75.05964,25.843972,-80.410369,01_26_2023_07_48,01_26_2023_16_35
CAR,Greensburg,PA,15601,Sugar Land,TX,77479,1050,COD/COP,1398,1,2010 tesla model 3,Runs,ENCLOSED,2023-01-30,881156599,Not specified,Bold Auto Transport LLC,(469) 966-9426,boldautotransport@gmail.com,100.0,Pittsburgh,Houston - Sugar Land - Baytown,40.332034,-79.534355,29.557763,-95.633612,01_26_2023_07_48,01_26_2023_16_35
CAR,feasterville trevose,PA,19053,coppell,TX,75019,1400,COD/COP,1511,1,2020 ford mustang,Runs,ENCLOSED,2023-01-26,1707995,delivery 02/01 or after that,Montway LLC,(224) 220-0003,dispatch@montway.com,100.0,Philadelphia - Camden - Wilmington,Dallas - Fort Worth - Arlington,40.158663,-74.973397,32.9601,-96.982656,01_26_2023_07_48,01_26_2023_12_04
SUV,Manheim,PA,17545,Ft Mitchell,KY,41011,900,COD/COP,506,1,2022 aston martin dbx,Runs,ENCLOSED,2023-01-26,DBX from Manheim PA to MBFM,Call Brandon Bayer or Brad Westfall to assign 859-331-1500,Mercedes Benz of Fort Mitchell,(859) 331-1500,pkohlman@mbfm.com,97.8,Lancaster,Cincinnati - Middletown,40.169738,-76.438133,39.065222,-84.529482,01_26_2023_07_48,01_26_2023_13_30
CAR,ogdensburg,NY,13669,daytona beach,FL,32124,1850,COD/COP,1301,1,2023 chevrolet corvette,Runs,ENCLOSED,2023-01-30,1707081,Not specified,Montway LLC,(224) 220-0003,dispatch@montway.com,100.0,Not specified,Deltona - Daytona Beach - Ormond Beach,44.674961,-75.482229,29.130812,-81.14881,01_26_2023_07_48,01_26_2023_09_32
CAR,north java,NY,14113,lewisburg,TN,37091,850,COD/COP,790,1,1967 pontiac firebird,Runs,ENCLOSED,2023-01-25,29820,have contract full pmt 702-342-1058,American Auto Shipping,(702) 342-1058,dispatch@americanautoshipping.com,100.0,Not specified,Not specified,42.656561,-78.341132,35.495021,-86.7644,01_26_2023_07_48,01_26_2023_16_35
CAR,NEW YORK,NY,10019,RALEIGH,NC,27606,900,TWO_BUSINESS_DAYS,515,1,2023 bmw ix xdrive50,Runs,ENCLOSED,2023-01-25,BS91522,Not specified,Blue Star Auto Movers,(954) 717-9884,dtorres@bluestarautomovers.com,99.9,New York - Northern New Jersey - Long Island,Raleigh - Cary,40.767192,-73.99181,35.737593,-78.721192,01_26_2023_07_48,01_26_2023_08_42
SUV,Nashua,NH,03062,Hagerstown,MD,21740,1100,TWO_BUSINESS_DAYS,484,1,1996 toyota land cruiser fj40 + few boxes of parts.,Inop,ENCLOSED,2023-01-26,11123341,text 863-934-4443 for pictures and info.,AA Car Transport LLC,(800) 516-3440,info@aacartransport.com,100.0,Manchester - Nashua,Hagerstown - Martinsburg,42.730416,-71.494756,39.62895,-77.7155,01_26_2023_07_48,01_26_2023_14_43
CAR,Meredith,NH,03253,Saint Petersburg,FL,33705,1300,TWO_BUSINESS_DAYS,1464,1,2000 jaguar xkr,Runs,ENCLOSED,2023-01-24,4028-NH-FL,Paige - 704-402-5007 Tel/Text Hardside,"Sterling Productions, LP",(704) 402-5007,paige@splpautotransport.com,100.0,Not specified,Tampa - St. Petersburg - Clearwater,43.6177,-71.478163,27.74337,-82.643724,01_26_2023_07_48,01_26_2023_16_35
SUV,manchester,NH,03101,san francisco,CA,94109,2000,COD/COP,3141,1,2022 toyota rav4 prime,Runs,ENCLOSED,2023-02-05,1711041,"actual p/u in middlebury,vt 05753.",Montway LLC,(224) 220-0003,dispatch@montway.com,100.0,Manchester - Nashua,San Francisco - Oakland - Fremont,42.988367,-71.465548,37.796164,-122.420903,01_26_2023_07_48,01_26_2023_11_52
CAR,manchester,NH,03103,lakeville,MA,02347,525,COD/COP,93,1,2023 chevrolet corvette,Runs,ENCLOSED,2023-01-26,506940,Not specified,"Preowned Auto Logistics, Inc.",(978) 542-1955 x1,info@palmoves.com,100.0,Manchester - Nashua,Boston - Cambridge - Quincy,42.940893,-71.444068,41.84096,-70.956121,01_26_2023_07_48,01_26_2023_08_17
CAR,keene,NH,03431,erie,PA,16505,550,COD/COP,473,1,1997 cadillac deville,Runs,ENCLOSED,2023-01-21,30551619-uf0,no comment,United Freeway Transportation LLC,(610) 756-7472,uftransportation2021@gmail.com,99.8,Not specified,Erie,42.976078,-72.276523,42.113985,-80.148263,01_26_2023_07_48,01_26_2023_16_35
CAR,hudson,NH,03051,minot afb,ND,58705,2200,COD/COP,1924,1,2022 honda civic,Runs,ENCLOSED,2023-01-30,30811789-yf,702 780-0217 call or text athina,Yellowfin Logistics LLC,(888) 223-5038,ben@yellowfinlogistics.com,99.7,Manchester - Nashua,Not specified,42.761768,-71.412573,48.41502,-101.332858,01_26_2023_07_48,01_26_2023_16_35
CAR,hudson,NH,03051,minot,ND,58704,2600,COD/COP,1925,1,2022 honda civic,Runs,ENCLOSED,2023-01-30,145438-1,"pul: hudson,nh 03051 del: minot,nd 58704",SGT Auto Transport,(864) 546-5038,sgtautotransport@gmail.com,99.9,Manchester - Nashua,Not specified,42.761768,-71.412573,48.429158,-101.320812,01_26_2023_07_48,01_26_2023_16_35
CAR,hudson,NH,03051,billings,MT,59105,2200,COD/COP,2248,1,2022 honda civic,Runs,ENCLOSED,2023-01-30,30811646-yf,702 780-0217 real del minot afb nd 58705,Yellowfin Logistics LLC,(888) 223-5038,ben@yellowfinlogistics.com,99.7,Manchester - Nashua,Billings,42.761768,-71.412573,45.870284,-108.491903,01_26_2023_07_48,01_26_2023_16_35
CAR,Concord,NH,03301,Melbourne,FL,32901,1300,COD/COP,1395,1,2018 bmw 5 series,Runs,ENCLOSED,2023-01-26,115874,call us or email us sales@nationalautoshipping.com,"National Auto Shipping,Inc",(954) 362-1919,sales@nationalautoshipping.com,99.7,Not specified,Palm Bay - Melbourne - Titusville,43.230539,-71.547977,28.074742,-80.632606,01_26_2023_07_48,01_26_2023_16_32
SUV,Colebrook,NH,03576,Henrico,VA,23294,700,TWO_BUSINESS_DAYS,722,1,2019 toyota rav4,Runs,ENCLOSED,2023-01-25,JS45299-3,Dealer to Dealer - Matt 774-855-1473 / TXT 508-868-1004,JS Transport Services Inc. 1,(888) 909-4550,info@jstransportservices.com,100.0,Not specified,Richmond,44.8964,-71.39544,37.628006,-77.543697,01_26_2023_07_48,01_26_2023_08_10
CAR,Bedford,NH,03110,Long Beach,CA,90803,1900,COD/COP,3037,1,1972 bmw 2000 touring,Runs,ENCLOSED,2023-01-25,301156256,call or text  516 906 9838,Number 1 Auto Transport Group Inc.,(516) 544-4044,dispatch@number1autotransport.com,100.0,Manchester - Nashua,Los Angeles - Long Beach - Anaheim,42.939248,-71.534653,33.759576,-118.13021,01_26_2023_07_48,01_26_2023_11_20
CAR,Verdon,NE,68457,San Jose,CA,95124,1500,COD/COP,1745,1,1949 mercury car,Runs,ENCLOSED,2023-01-26,868220jm,Not specified,1Flat-Rate LLC,(800) 876-4888,anyfreightanywhere@gmail.com,99.2,Not specified,San Jose - Sunnyvale - Santa Clara,40.131122,-95.72801,37.255446,-121.92535,01_26_2023_07_48,01_26_2023_16_35
SUV,blair,NE,68008,new braunfels,TX,78130,1150,COD/COP,928,1,2023 ford bronco,Runs,ENCLOSED,2023-01-24,0116b8,dims: 190x87x78,ATS Transportation Services,(408) 234-0236,randybond@att.net,97.8,Omaha - Council Bluffs,San Antonio - New Braunfels,41.545418,-96.191248,29.70097,-98.076731,01_26_2023_07_48,01_26_2023_12_40
PICKUP,bismarck,ND,58504,miami,FL,33155,1900,COD/COP,2230,1,1989 chevrolet s10,Runs,ENCLOSED,2022-12-28,Not specified,Not specified,House of Boost,(786) 487-9775,turbochrisss@gmail.com,100.0,Bismarck,Miami - Fort Lauderdale - Pompano Beach,46.711389,-100.649356,25.736516,-80.310886,01_26_2023_07_48,01_26_2023_16_35
PICKUP,winston salem,NC,27127,littleton,CO,80123,1600,COD/COP,1596,1,2023 ford f-150 crew cab,Runs,ENCLOSED,2023-01-26,245683-66909,"destination: colorado springs,co 80908",Nexus AT LLC,(224) 265-0677,dispatch@nexusautotransport.com,99.9,Winston - Salem,Denver - Aurora,36.022309,-80.290864,39.613606,-105.063244,01_26_2023_07_48,01_26_2023_16_35
PICKUP,winston salem,NC,27127,colorado springs,CO,80908,1600,COD/COP,1559,1,2023 ford f-150 crew cab,Runs,ENCLOSED,2023-01-26,245683-66907,Not specified,Nexus AT LLC,(224) 265-0677,dispatch@nexusautotransport.com,99.9,Winston - Salem,Colorado Springs,36.022309,-80.290864,39.022441,-104.698044,01_26_2023_07_48,01_26_2023_16_35
SUV,Wilmington,NC,28405,Washington,DC,20011,600,COD/COP,370,1,2022 jeep grand cherokee l,Runs,ENCLOSED,2023-01-23,Brenden,Not specified,Bentley Tysons,(703) 587-4482,tate@bentleytysons.com,94.3,Wilmington,Washington - Arlington - Alexandria,34.27068,-77.859495,38.950224,-77.019714,01_26_2023_07_48,01_26_2023_16_35
CAR,Wilmington,NC,28409,Tampa,FL,33614,650,COD/COP,638,1,2017 ferrari 488 gtb,Runs,ENCLOSED,2023-01-25,Not specified,Not specified,European Exotic Center,(574) 229-5341,chas@europeanexoticcenter.com,100.0,Wilmington,Tampa - St. Petersburg - Clearwater,34.133744,-77.855354,28.004875,-82.505808,01_26_2023_07_48,01_26_2023_11_49
PICKUP,Wake Forest,NC,27587,San Diego,CA,92101,1850,COD/COP,2553,1,1955 chevrolet 3100 short bed,Runs,ENCLOSED,2023-01-26,11093490,Call/text 561-232-2937,Nationwide Transport Services LLC,(754) 732-0333,central@nationwidetransportservices.com,100.0,Raleigh - Cary,San Diego - Carlsbad - San Marcos,35.981296,-78.550181,32.719907,-117.180528,01_26_2023_07_48,01_26_2023_16_35
CAR,wake forest,NC,27587,phoenix,AZ,85083,1125,COD/COP,2205,1,2020 honda accord,Runs,ENCLOSED,2023-02-02,1668623,Not specified,Montway LLC,(224) 220-0003,dispatch@montway.com,100.0,Raleigh - Cary,Phoenix - Mesa - Glendale,35.981296,-78.550181,33.724766,-112.159099,01_26_2023_07_48,01_26_2023_11_03
PICKUP,shallotte,NC,28470,west greenwich,RI,02817,1200,COD/COP,791,1,1948 ford f,Inop,ENCLOSED,2023-02-03,r562526,-,RoadRunner Auto Transport,(516) 605-2666,dispatch@v2logistics.com,99.9,Myrtle Beach - Conway - North Myrtle Beach,Providence - New Bedford - Fall River,33.956706,-78.400999,41.629228,-71.665956,01_26_2023_07_48,01_26_2023_08_45
CAR,Sanbornville,NH,03872,Venice,FL,34293,1400,COD/COP,1508,1,1966 chevrolet corvette,Runs,ENCLOSED,2023-01-25,Not specified,Not specified,Ideal Classic Cars,(941) 966-1900,idealclassiccars@gmail.com,81.8,Not specified,North Port - Bradenton - Sarasota,43.584992,-71.038237,27.041813,-82.350172,01_26_2023_07_48,01_26_2023_08_07
CAR,Raleigh,NC,27606,Naples,FL,34108,640,COD/COP,805,1,1958 porsche speedter replica,Runs,ENCLOSED,2023-01-25,3662 Porsche 356 Replica,Send text with order ID and company Name and I will call you,Arrange Transport,(757) 280-1580,arrangecartransport@gmail.com,100.0,Raleigh - Cary,Naples - Marco Island,35.737593,-78.721192,26.244492,-81.808154,01_26_2023_07_48,01_26_2023_16_35
CAR,atlantic city,NJ,08401,bayville,NJ,08721,150,COD/COP,47,1,2023 chevrolet corvette,Runs,ENCLOSED,2023-01-27,144802,Not specified,SGT Auto Transport,(864) 546-5038,sgtautotransport@gmail.com,99.9,Atlantic City,New York - Northern New Jersey - Long Island,39.371579,-74.452032,39.90437,-74.211415,01_26_2023_07_48,01_26_2023_09_29
CAR,Bridgeton,NJ,08302,Houston,TX,77004,1300,COD/COP,1546,1,2012 audi a8,Runs,ENCLOSED,2023-02-06,11075756,Call or text (205) 390-6125...,Global X Logistics LLC,(888) 273-0620,jean@globalxlogisticsllc.com,98.1,Vineland - Millville - Bridgeton,Houston - Sugar Land - Baytown,39.427194,-75.257508,29.72717,-95.361846,01_26_2023_07_48,01_26_2023_13_58
SUV,Middlesex,NJ,08846,Medina,WA,98039,2000,FIVE_BUSINESS_DAYS,2845,1,2022 ford bronco,Runs,ENCLOSED,2023-01-23,Bronco-NJ-WA,please text 908-229-7074 for dispatch,Sixty Four Motorcars LLC,908-229-7074,64motorcars@gmail.com,99.4,New York - Northern New Jersey - Long Island,Seattle - Tacoma - Bellevue,40.574029,-74.498354,47.627636,-122.24317,01_26_2023_07_48,01_26_2023_16_35
CAR,Middlesex,NJ,08846,Friendsville,TN,37737,1000,FIVE_BUSINESS_DAYS,704,1,1969 chevrolet chevelle ss,Runs,ENCLOSED,2023-02-01,SS-NJ-TN,please text 908-229-7074 for dispatch,Sixty Four Motorcars LLC,908-229-7074,64motorcars@gmail.com,99.4,New York - Northern New Jersey - Long Island,Knoxville,40.574029,-74.498354,35.75413,-84.1025,01_26_2023_07_48,01_26_2023_16_35
SUV,mahwah,NJ,07430,medina,WA,98039,2500,COD/COP,2853,1,2022 ford bronco,Runs,ENCLOSED,2023-01-25,30684900bw,no comment,Brookwide Inc,(929) 592-3070,autodispatch@brookwide.com,99.8,New York - Northern New Jersey - Long Island,Seattle - Tacoma - Bellevue,41.077976,-74.176374,47.627636,-122.24317,01_26_2023_07_48,01_26_2023_09_17
CAR,Long Valley,NJ,07853,Bucyrus,KS,66013,1300,COD/COP,1203,1,2015 porsche gt 3 cup,Inop,ENCLOSED,2023-01-26,Carship1,Please text (708) 667-6916,Carship Inc,(708) 315-7900,dispatch@carmaxship.com,100.0,New York - Northern New Jersey - Long Island,Kansas City,40.78307,-74.803724,38.735833,-94.684595,01_26_2023_07_48,01_26_2023_11_14
SUV,LINDEN,NJ,07036,GREAT NECK,NY,11024,350,TWO_BUSINESS_DAYS,44,1,1996 toyota mega cruiser,Runs,ENCLOSED,2023-01-26,BS88684,Not specified,Blue Star Auto Movers,(954) 717-9884,dtorres@bluestarautomovers.com,99.9,New York - Northern New Jersey - Long Island,New York - Northern New Jersey - Long Island,40.624754,-74.249144,40.817992,-73.739812,01_26_2023_07_48,01_26_2023_08_13
SUV,Hillside,NJ,07205,Lubbock,TX,79423,1500,COD/COP,1830,1,2018 dodge durango,Runs,ENCLOSED,2023-01-27,ADLR31,Please call/text  Andre at 325-225-0676 (ENGLISH/ESPAOL),Easy Peasy USA Logistics LLC,(814) 954-0274,support@easypeasyusalogistics.com,100.0,New York - Northern New Jersey - Long Island,Lubbock,40.692857,-74.23063,33.461318,-101.839867,01_26_2023_07_48,01_26_2023_16_35
CAR,Harrison,NJ,07029,Chicago,IL,60649,550,COD/COP,772,1,2007 toyota camry solara,Runs,ENCLOSED,2023-01-26,10948329,Anna 404-446-3911 / Ready for pick up,USA Carship Inc,(404) 835-7997,info@usacarship.com,96.8,New York - Northern New Jersey - Long Island,Chicago - Naperville - Joliet,40.743983,-74.15002,41.766152,-87.563464,01_26_2023_07_48,01_26_2023_16_35
CAR,Hackensack,NJ,07601,Apex,NC,27539,700,COD/COP,516,1,1965 pontiac le mans,Runs,ENCLOSED,2023-01-25,Not specified,call/txt 516-946-9347 dispatch ,Dukes Auto Inc,(516) 946-9347,theautoshippers@hotmail.com,99.8,New York - Northern New Jersey - Long Island,Raleigh - Cary,40.886144,-74.046312,35.683338,-78.813264,01_26_2023_07_48,01_26_2023_15_04
PICKUP,Glen Rock,NJ,07452,Fairfield,IA,52556,1500,COD/COP,1036,1,1947 dodge m37,Runs,ENCLOSED,2023-01-26,11094743,height 7 ft 5 inches,Certified Auto Shippers LLC,(503) 760-3232,kathy@certifiedautoshippers.com,100.0,New York - Northern New Jersey - Long Island,Not specified,40.960638,-74.123216,41.024981,-91.921848,01_26_2023_07_48,01_26_2023_11_14
SUV,frenchtown,NJ,08825,glencoe,IL,60022,900,TWO_BUSINESS_DAYS,790,1,1992 mercedes-benz 250gd,Runs,ENCLOSED,2023-01-26,EMC-082454back,text 917-397-6335 for dispatch,Allied CHB Inc,(917) 397-6335,alex@alliedchb.com,100.0,New York - Northern New Jersey - Long Island,Chicago - Naperville - Joliet,40.508317,-75.014244,42.135717,-87.76602,01_26_2023_07_48,01_26_2023_09_29
CAR,Freehold,NJ,07728,Hickory,NC,28601,925,COD/COP,623,1,2006 mitsubishi lancer evolution,Runs,ENCLOSED,2023-01-25,NJNCENC,PLEASE TEXT COMPANY INFO TO 828-578-9257,Cosmo Motors LLC,828-578-9257,Nicole.cosmiclogistics@gmail.com,100.0,New York - Northern New Jersey - Long Island,Hickory - Lenoir - Morganton,40.230166,-74.295424,35.780393,-81.33651,01_26_2023_07_48,01_26_2023_09_14
CAR,Flemington,NJ,08822,Lincoln,RI,02865,450,TWO_BUSINESS_DAYS,250,1,2023 audi s5,Runs,ENCLOSED,2023-01-24,29269527,http:iTruckify.com/69r9i TEXT 918-896-0980 FOR DISPATCH,Anew Transport,(877) 801-2044,dispatch@anewtransport.com,100.0,New York - Northern New Jersey - Long Island,Providence - New Bedford - Fall River,40.518392,-74.868072,41.919332,-71.442985,01_26_2023_07_48,01_26_2023_10_02
CAR,elizabeth,NJ,07208,north chicago,IL,60064,1150,FIVE_BUSINESS_DAYS,821,1,1954 rolls royce silver wraith,Inop,ENCLOSED,2023-01-25,on-15044 Text (209) 431-0978 for more info,Not specified,National Transport Services,(209) 431-0978,dispatch@shipnts.com,100.0,New York - Northern New Jersey - Long Island,Chicago - Naperville - Joliet,40.681346,-74.227812,42.324564,-87.859217,01_26_2023_07_48,01_26_2023_08_17
CAR,Edison,NJ,08817,South Jordan,UT,84095,2000,COD/COP,2182,1,2016 ferrari 488 gtb,Runs,ENCLOSED,2023-01-26,215112,Not specified,Salt Lake City Motorcars,(385) 346-1575,tom@slcmotorcars.com,100.0,New York - Northern New Jersey - Long Island,Salt Lake City,40.519247,-74.396829,40.55938,-111.982416,01_26_2023_07_48,01_26_2023_12_27
SUV,edison,NJ,08817,newport beach,CA,92660,2110,COD/COP,2769,1,2023 gmc yukon xl,Runs,ENCLOSED,2023-01-24,30807342-yf,call or text chuck at 702 359 0907,Yellowfin Logistics LLC,(888) 223-5038,ben@yellowfinlogistics.com,99.7,New York - Northern New Jersey - Long Island,Los Angeles - Long Beach - Anaheim,40.519247,-74.396829,33.637966,-117.873246,01_26_2023_07_48,01_26_2023_16_35
SUV,edgewater,NJ,07020,inglewood,CA,90305,2650,TWO_BUSINESS_DAYS,2809,1,2022 cadillac escalade,Runs,ENCLOSED,2023-01-26,Escalade only,Not specified,Boss Auto Transport,(561) 713-0381,abadiotakis@att.net,100.0,New York - Northern New Jersey - Long Island,Los Angeles - Long Beach - Anaheim,40.822907,-73.973867,33.959984,-118.33094,01_26_2023_07_48,01_26_2023_09_48
SUV,east brunswick,NJ,08816,san francisco,CA,94103,1850,COD/COP,2905,1,2022 lexus rx,Runs,ENCLOSED,2023-01-26,145055,Not specified,SGT Auto Transport,(864) 546-5038,sgtautotransport@gmail.com,99.9,New York - Northern New Jersey - Long Island,San Francisco - Oakland - Fremont,40.436602,-74.41682,37.775504,-122.41292,01_26_2023_07_48,01_26_2023_10_17
CAR,Clementon,NJ,08021,Kernersville,NC,27284,550,COD/COP,472,1,1973 opel gt,Runs,ENCLOSED,2023-01-26,10632772,Call or text 302 688 7711 / Signed contract,Pride Car Shipping Inc,(302) 772-4448,support@pridecarshipping.com,99.4,Philadelphia - Camden - Wilmington,Winston - Salem,39.804754,-75.006042,36.118256,-80.07602,01_26_2023_07_48,01_26_2023_16_35
SUV,Clementon,NJ,08021,High Point,NC,27260,505,COD/COP,477,1,2014 jeep wrangler,Runs,ENCLOSED,2023-01-26,10888348,Simon (404) 400-5293 || Ready for dispatch,USA Carship Inc,(404) 835-7997,info@usacarship.com,96.8,Philadelphia - Camden - Wilmington,Greensboro - High Point,39.804754,-75.006042,35.95657,-79.992752,01_26_2023_07_48,01_26_2023_16_35
SUV,Cherry Hill,NJ,08003,Prosper,TX,75078,1025,COD/COP,1470,1,2023 land rover defender,Runs,ENCLOSED,2023-01-26,10796932,770-881-7199 Text/Call Ready to Pick,Cheapautotrans Inc,(770) 881-7185,info@cheapautotrans.com,97.2,Philadelphia - Camden - Wilmington,Dallas - Fort Worth - Arlington,39.890037,-74.973617,33.262918,-96.805285,01_26_2023_07_48,01_26_2023_16_35
SUV,Bridgewater,NJ,08807,Collierville,TN,38017,1400,FIFTEEN_BUSINESS_DAYS,1050,1,2023 mercedes-benz gls,Runs,ENCLOSED,2023-01-26,38614,Not specified,Beacon Shipping Logistics,(401) 525-0654,dispatch@bslusa.com,100.0,New York - Northern New Jersey - Long Island,Memphis,40.592786,-74.616295,35.091114,-89.658597,01_26_2023_07_48,01_26_2023_07_54
CAR,Atlantic City,NJ,08401,Fontana,CA,92336,1700,COD/COP,2730,1,2023 chevrolet corvette,Runs,ENCLOSED,2023-01-26,10349518,SIGNED CONTRACT. READY TO GO. COD.,East West Auto Transport,(781) 763-7447,aperry@eastwestautotransport.com,100.0,Atlantic City,Riverside - San Bernardino - Ontario,39.371579,-74.452032,34.146127,-117.45994,01_26_2023_07_48,01_26_2023_16_35
PICKUP,raleigh,NC,27602,colorado springs,CO,80908,1600,COD/COP,1655,1,2023 ford f-150 crew cab,Runs,ENCLOSED,2023-01-26,245683-66908,"origin: winston salem,nc 27127",Nexus AT LLC,(224) 265-0677,dispatch@nexusautotransport.com,99.9,Raleigh - Cary,Colorado Springs,35.7719,-78.6388,39.022441,-104.698044,01_26_2023_07_48,01_26_2023_16_35
CAR,Pineville,NC,28134,TOMBALL,TX,77375,1200,TWO_BUSINESS_DAYS,1074,1,2020 audi r8,Runs,ENCLOSED,2023-01-24,BS91264,LIFT GATE ONLY,Blue Star Auto Movers,(954) 717-9884,dtorres@bluestarautomovers.com,99.9,Charlotte - Gastonia - Rock Hill,Houston - Sugar Land - Baytown,35.077531,-80.890748,30.09184,-95.590398,01_26_2023_07_48,01_26_2023_16_35
CAR,mt ulla,NC,28125,fort worth,TX,76116,1000,TWO_BUSINESS_DAYS,1099,1,1965 ford gt40,Inop,ENCLOSED,2023-01-31,sebastien,acord cert required delivered m-f norm business hours,Nevada Classics Inc,(817) 247-1981,mark@dynamicmotorsports.com,100.0,Charlotte - Gastonia - Rock Hill,Dallas - Fort Worth - Arlington,35.660354,-80.710404,32.725645,-97.461342,01_26_2023_07_48,01_26_2023_16_35
CAR,springfield,MO,65806,bellevue,WA,98007,1600,COD/COP,1999,1,2022 tesla model y,Runs,ENCLOSED,2023-02-01,FEV1377,Not specified,Five Star Logix LLC,(979) 261-0112,dispatch@fivestarlogix.com,100.0,Springfield,Seattle - Tacoma - Bellevue,37.206124,-93.303335,47.619741,-122.142986,01_26_2023_07_48,01_26_2023_16_35
CAR,Springfield,MO,65810,Middlesex,NJ,08846,1000,FIVE_BUSINESS_DAYS,1151,1,2002 ferrari 360 modena,Runs,ENCLOSED,2023-01-30,360-MO-NJ,please text 908-229-7074 for dispatch,Sixty Four Motorcars LLC,908-229-7074,64motorcars@gmail.com,99.4,Springfield,New York - Northern New Jersey - Long Island,37.116477,-93.32051,40.574029,-74.498354,01_26_2023_07_48,01_26_2023_10_30
SUV,Saint Louis,MO,63144,bellevue,WA,98005,1900,TWO_BUSINESS_DAYS,2133,1,1989 toyota land cruiser,Runs,ENCLOSED,2023-01-25,A160103,Not specified,Carworx Auto Transport Inc,(425) 750-0983,movecars@gmail.com,100.0,St. Louis,Seattle - Tacoma - Bellevue,38.618213,-90.348428,47.620068,-122.173086,01_26_2023_07_48,01_26_2023_12_53
CAR,saint louis,MO,63101,san francisco,CA,94102,1200,COD/COP,2059,1,2023 toyota gr supra,Runs,ENCLOSED,2023-02-01,29272669,pu cape girardeau mo 63701 del fresno ca 93722,Flix Auto Transport LLC,(512) 549-4085,dispatch@flixautotransport.com,100.0,St. Louis,San Francisco - Oakland - Fremont,38.631372,-90.192381,37.779392,-122.417738,01_26_2023_07_48,01_26_2023_16_35
CAR,Saint Louis,MO,63116,Phoenix,AZ,85042,1500,FIVE_BUSINESS_DAYS,1459,1,2001 plymouth proler with trailer,Runs,ENCLOSED,2023-01-30,315724,Not specified,Angels Moving Autos,(530) 245-0629,angelsmovingautos@gmail.com,99.6,St. Louis,Phoenix - Mesa - Glendale,38.581532,-90.268444,33.370003,-112.035334,01_26_2023_07_48,01_26_2023_16_35
SUV,saint louis,MO,63123,carrboro,NC,27510,575,COD/COP,803,1,2023 chevrolet bolt ev,Runs,ENCLOSED,2023-01-24,30568425-uf,call 610 7567321,United Freeway Transportation LLC,(610) 756-7472,uftransportation2021@gmail.com,99.8,St. Louis,Durham,38.548788,-90.31976,35.910972,-79.082087,01_26_2023_07_48,01_26_2023_07_58
CAR,saint louis,MO,63109,atlanta,GA,30308,375,COD/COP,561,1,2000 chevrolet corvette,Runs,ENCLOSED,2023-01-31,249812-68446,"actual: poplar bluff,mo 63901 to chattanooga,tn 37403",Nexus AT LLC,(224) 265-0677,dispatch@nexusautotransport.com,99.9,St. Louis,Atlanta - Sandy Springs - Marietta,38.581074,-90.29589,33.769122,-84.376454,01_26_2023_07_48,01_26_2023_16_35
CAR,Saint Charles,MO,63301,Marysville,WA,98271,1800,IMMEDIATELY,2167,1,1964 pontiac gto,Runs,ENCLOSED,2023-01-25,23-058,Book on super-lb.com/R0N2Mj,CREE Classic Cars LLC,(573) 819-8214,creeclassiccars@gmail.com,100.0,St. Louis,Seattle - Tacoma - Bellevue,38.856848,-90.451614,48.089312,-122.237439,01_26_2023_07_48,01_26_2023_08_42
CAR,Saint Ann,MO,63074,Tulsa,OK,74145,600,TWO_BUSINESS_DAYS,394,1,1989 porsche 911,Runs,ENCLOSED,2023-01-25,29245468,http:iTruckify.com/m7ow0,Bears Transport LLC,(847) 810-7641,etbears022@gmail.com,100.0,St. Louis,Tulsa,38.72658,-90.389026,36.09718,-95.886556,01_26_2023_07_48,01_26_2023_16_35
CAR,Rolla,MO,65401,Medford,OR,97504,1400,COD/COP,2044,1,2011 kia soul,Runs,ENCLOSED,2023-02-06,10695188,Not specified,Suncoast Auto Transport Inc.,772-337-8546,dispatch@suncoastautotransport.com,100.0,Not specified,Medford,37.889687,-91.82741,42.322754,-122.793404,01_26_2023_07_48,01_26_2023_16_35
CAR,poplar bluff,MO,63901,chattanooga,TN,37403,375,COD/COP,380,1,2000 chevrolet corvette,Runs,ENCLOSED,2023-01-31,249812-68445,Not specified,Nexus AT LLC,(224) 265-0677,dispatch@nexusautotransport.com,99.9,Not specified,Chattanooga,36.757896,-90.460885,35.047003,-85.29306,01_26_2023_07_48,01_26_2023_16_35
PICKUP,maryland heights,MO,63043,mukilteo,WA,98275,1800,COD/COP,2146,1,1993 chevrolet s-10,Runs,ENCLOSED,2023-01-25,145125,Not specified,SGT Auto Transport,(864) 546-5038,sgtautotransport@gmail.com,99.9,St. Louis,Seattle - Tacoma - Bellevue,38.730854,-90.45571,47.913148,-122.303782,01_26_2023_07_48,01_26_2023_08_23
CAR,maryland heights,MO,63043,phoenix,AZ,85042,1400,COD/COP,1513,1,2013 mercedes-benz sls amg gt,Runs,ENCLOSED,2023-02-03,30428629-st,simon 9292994441,SAFEEDS TRANSPORT INC,(315) 314-4337,info@safeeds.us,100.0,St. Louis,Phoenix - Mesa - Glendale,38.730854,-90.45571,33.370003,-112.035334,01_26_2023_07_48,01_26_2023_16_35
CAR,Maryland Heights,MO,63043,Phoenix,AZ,85042,1300,COD/COP,1513,1,2013 mercedes-benz sls amg gt,Runs,ENCLOSED,2023-01-27,11120875,Not specified,Lundstroms Transport LLC,(201) 841-1946,lundstromsautotransport@gmail.com,99.8,St. Louis,Phoenix - Mesa - Glendale,38.730854,-90.45571,33.370003,-112.035334,01_26_2023_07_48,01_26_2023_08_48
SUV,Liberty,MO,64068,bellevue,WA,98005,1800,TWO_BUSINESS_DAYS,1893,1,2019 jaguar i-pace,Runs,ENCLOSED,2023-01-25,160141,Not specified,Carworx Auto Transport Inc,(425) 750-0983,movecars@gmail.com,100.0,Kansas City,Seattle - Tacoma - Bellevue,39.26767,-94.389255,47.620068,-122.173086,01_26_2023_07_48,01_26_2023_12_49
CAR,Lees Summit,MO,64002,Aurora,CO,80012,325,COD/COP,616,1,2016 ferrari 488 gtb,Runs,ENCLOSED,2023-02-01,11152246,Not specified,USA Carship Inc,(404) 835-7997,info@usacarship.com,96.8,Kansas City,Denver - Aurora,38.925916,-94.400988,39.703795,-104.837948,01_26_2023_07_48,01_26_2023_16_35
CAR,Kaiser,MO,65047,Selby,SD,57472,850,COD/COP,809,1,1966 chevy impala,Runs,ENCLOSED,2023-01-25,impala,Not specified,Lakeway Motors,636-795-0772 Mike,lakewaymotors@hotmail.com,99.1,Not specified,Not specified,38.184638,-92.560386,45.420344,-100.11902,01_26_2023_07_48,01_26_2023_16_35
PICKUP,Independence,MO,64050,Lubbock,TX,79407,1000,TWO_BUSINESS_DAYS,720,1,1999 rolls-royce silver spur,Runs,ENCLOSED,2023-01-30,28859925,http:iTruckify.com/97ht3 DELIVERY NO SOONER THAN JAN 31,Bears Transport LLC,(847) 810-7641,etbears022@gmail.com,100.0,Kansas City,Lubbock,39.123348,-94.411739,33.582377,-102.037603,01_26_2023_07_48,01_26_2023_16_35
CAR,Fenton,MO,63026,Katy,TX,77494,1050,COD/COP,804,1,2015 bmw 5 series,Runs,ENCLOSED,2023-02-03,2015BMW,Not specified,Motoexotica Classic Cars LLC,(636) 600-4600,brittany@motoexotica.com,99.6,St. Louis,Houston - Sugar Land - Baytown,38.499952,-90.460954,29.740187,-95.83018,01_26_2023_07_48,01_26_2023_16_35
CAR,Crane,MO,65633,San Antonio,TX,78238,600,FIVE_BUSINESS_DAYS,693,1,2022 ford gt 500,Runs,ENCLOSED,2023-01-23,9825,Not specified,Freedom Logistics,(229) 529-4069,dispatch@freedomlogistics.us,99.5,Not specified,San Antonio - New Braunfels,36.904264,-93.49354,29.473788,-98.612205,01_26_2023_07_48,01_26_2023_16_35
CAR,Chesterfield,MO,63005,Eugene,OR,97401,1500,COD/COP,2140,1,2018 jaguar f-type,Runs,ENCLOSED,2023-01-25,VAILLANCOUR F-TYPE,Call  OR TEXT Ryan for assignment 847-366-6752,Jaguar Land Rover Chesterfield,(847) 366-6752,ryan@jlrchesterfield.com,100.0,St. Louis,Eugene - Springfield,38.634836,-90.668873,44.067151,-123.082726,01_26_2023_07_48,01_26_2023_16_13
CAR,Biloxi,MS,39531,Baton Rouge,LA,70809,550,COD/COP,139,1,1991 ferrari testarossa,Runs,ENCLOSED,2023-01-25,Not specified,Not specified,"Gulf Coast Exotic Auto, LLC",(228) 224-6162,gulfcoastexoticauto@gmail.com,98.3,Gulfport - Biloxi,Baton Rouge,30.405553,-88.958694,30.386954,-91.064119,01_26_2023_07_48,01_26_2023_13_27
CAR,Canton,MS,39046,Ballwin,MO,63021,500,COD/COP,465,1,2020 golf cart,Runs,ENCLOSED,2023-01-30,981992,http:iTruckify.com/s2vst,Car Delivery USA Inc,(305) 501-2688,daniel@alldayautotransport.com,99.3,Jackson,St. Louis,32.626828,-90.022923,38.564695,-90.534479,01_26_2023_07_48,01_26_2023_16_35
SUV,Ridgeland,MS,39157,Santa Fe Springs,CA,90670,1100,TWO_BUSINESS_DAYS,1844,1,2023 mercedes-benz mercedes-maybach gls,Runs,ENCLOSED,2023-01-25,BP PA888169,Not specified,Autobyzack Inc,(832) 588-6632,zackyazici@me.com,97.7,Jackson,Los Angeles - Long Beach - Anaheim,32.428608,-90.153354,33.923248,-118.057571,01_26_2023_07_48,01_26_2023_13_36
CAR,Bigfork,MT,59911,West Palm Beach,FL,33401,2200,TWO_BUSINESS_DAYS,2843,1,2016 aston martin db9,Runs,ENCLOSED,2023-01-24,Aston Martin,Not specified,Interstate Motorsport LLC,(609) 239-7800,danielle@interstatemotorsport.com,100.0,Not specified,Miami - Fort Lauderdale - Pompano Beach,47.876626,-113.872384,26.719692,-80.069451,01_26_2023_07_48,01_26_2023_13_58
SUV,Morrisville,NC,27560,Oakland,CA,94611,1500,COD/COP,2820,1,2021 jeep grand cherokee hellcat,Runs,ENCLOSED,2023-01-26,10524846,Call or text 4075300622,Nationwide Transport Services LLC,(754) 732-0333,central@nationwidetransportservices.com,100.0,Raleigh - Cary,San Francisco - Oakland - Fremont,35.861991,-78.818149,37.83611,-122.219253,01_26_2023_07_48,01_26_2023_16_35
CAR,Morrisville,NC,27560,Brownsville,TX,78520,1700,TEN_BUSINESS_DAYS,1539,1,1995 triumph tr6,Runs,ENCLOSED,2023-01-25,7291,Book on super-lb.com/e78NA4,T&J Auto Transport,(843) 757-6750,tracey@tjautotransport.com,99.9,Raleigh - Cary,Brownsville - Harlingen,35.861991,-78.818149,25.967561,-97.547491,01_26_2023_07_48,01_26_2023_07_58
CAR,Mooresville,NC,28117,Eagle Pass,TX,78852,1200,COD/COP,1399,1,1929 ford model a,Runs,ENCLOSED,2023-02-06,10210906,private to private call or text Oscar 2563926684,G&G Auto Transport LLC,(256) 660-6960,pgangie1412@gmail.com,95.3,Charlotte - Gastonia - Rock Hill,Not specified,35.571472,-80.895998,28.562017,-100.332488,01_26_2023_07_48,01_26_2023_16_35
CAR,Mooresville,NC,28115,Bakersfield,CA,93308,1500,COD/COP,2452,1,2022 ford mustang,Runs,ENCLOSED,2023-01-27,BW-32566,Call or Text: (917) 773 8853,Best Way Auto Transport LLC,(917) 773-8853,best.watllc@gmail.com,100.0,Charlotte - Gastonia - Rock Hill,Bakersfield - Delano,35.588778,-80.762717,35.54207,-118.939604,01_26_2023_07_48,01_26_2023_12_37
CAR,kure beach,NC,28449,scottsdale,AZ,85262,1300,COD/COP,2297,1,1965 ford shelby gt500,Runs,ENCLOSED,2023-02-03,144593,Not specified,SGT Auto Transport,(864) 546-5038,sgtautotransport@gmail.com,99.9,Wilmington,Phoenix - Mesa - Glendale,33.970858,-77.922954,33.855444,-111.626078,01_26_2023_07_48,01_26_2023_16_35
CAR,Kernersville,NC,27284,Arnold,MO,63010,680,COD/COP,750,1,1991 chevrolet corvette,Runs,ENCLOSED,2023-02-01,UPR20434 Uship Payment,Not specified,Tempus Logix,(818) 942-7020,dispatchtempuslogix@gmail.com,100.0,Winston - Salem,St. Louis,36.118256,-80.07602,38.423443,-90.401639,01_26_2023_07_48,01_26_2023_16_35
CAR,kannapolis,NC,28081,paradise valley,AZ,85253,1550,COD/COP,2049,1,1993 porsche 911,Runs,ENCLOSED,2023-01-27,1708115,Not specified,Montway LLC,(224) 220-0003,dispatch@montway.com,100.0,Charlotte - Gastonia - Rock Hill,Phoenix - Mesa - Glendale,35.499715,-80.676534,33.545998,-111.969375,01_26_2023_07_48,01_26_2023_10_52
CAR,Jacksonville,NC,28540,Raleigh,NC,27616,500,TWO_BUSINESS_DAYS,129,1,2006 lexus is250,Inop,ENCLOSED,2023-01-25,29262030,"http:iTruckify.com/pwhnl NEED A WINCH 
20230123-085219-ANDR",Bears Transport LLC,(847) 810-7641,etbears022@gmail.com,100.0,Jacksonville,Raleigh - Cary,34.729522,-77.498376,35.870606,-78.533618,01_26_2023_07_48,01_26_2023_08_32
CAR,Havelock,NC,28532,San Diego,CA,92120,1720,FIFTEEN_BUSINESS_DAYS,2640,1,2013 ford focus,Runs,ENCLOSED,2023-01-25,64977,HYDRAULIC LIFT GATE ONLY! OR RACE RAMPS,4 Corners Transport Services,(360) 210-7665,info@fourcornerstransportservices.com,100.0,Not specified,San Diego - Carlsbad - San Marcos,34.897706,-76.867361,32.794906,-117.075492,01_26_2023_07_48,01_26_2023_16_35
CAR,germanton,NC,27019,pataskala,OH,43062,550,COD/COP,370,1,1967 chevrolet camaro,Runs,ENCLOSED,2023-01-28,1710658,Not specified,Montway LLC,(224) 220-0003,dispatch@montway.com,100.0,Winston - Salem,Columbus,36.291218,-80.238076,40.000678,-82.676977,01_26_2023_07_48,01_26_2023_11_03
CAR,Monmouth Junction,NJ,08852,Kansas City,MO,64152,900,COD/COP,1182,1,2022 acura tlx awd,Runs,ENCLOSED,2023-01-26,11040045,Daniel || 404 551 4548 ||,USA Carship Inc,(404) 835-7997,info@usacarship.com,96.8,New York - Northern New Jersey - Long Island,Kansas City,40.394588,-74.548626,39.217586,-94.74676,01_26_2023_07_48,01_26_2023_16_35
SUV,gastonia,NC,28056,waco,TX,76701,1200,COD/COP,1050,1,2022 bmw x5- enclosed,Runs,ENCLOSED,2023-01-31,241076 vip,to book email cole@acmecarshipping.com,Acme Auto Shipping,(469) 464-5725 x2,kevin@acmecarshipping.com,100.0,Charlotte - Gastonia - Rock Hill,Waco,35.244282,-81.125253,31.55127,-97.138246,01_26_2023_07_48,01_26_2023_10_08
PICKUP,Concord,NC,28027,Converse,TX,78109,1250,COD/COP,1232,1,1993 ford f-150 lightning,Runs,ENCLOSED,2023-01-25,69366,5daypay- DELIVER SAT/SUNDAY ONLY,Perry Morris Brokers / Perry Morris Transport Inc.,(843) 332-1345 x4,tara@pmbrokersinc.com,100.0,Charlotte - Gastonia - Rock Hill,San Antonio - New Braunfels,35.419708,-80.675816,29.478657,-98.273552,01_26_2023_07_48,01_26_2023_10_24
SUV,Concord,NC,28027,Oconomowoc,WI,53066,950,FIVE_BUSINESS_DAYS,873,1,2023 cadillac escalade esv,Runs,ENCLOSED,2023-01-26,8764,Not specified,Dor L'Dor Global LLC,(732) 503-9191,dorldorglobal@gmail.com,99.3,Charlotte - Gastonia - Rock Hill,Milwaukee - Waukesha - West Allis,35.419708,-80.675816,43.118714,-88.518479,01_26_2023_07_48,01_26_2023_09_17
CAR,Colfax,NC,27235,Minneapolis,MN,55445,900,COD/COP,1141,1,2022 genesis g70 awd,Runs,ENCLOSED,2023-01-26,10988358,Zach  313-880-3598,Profexo Inc,(313) 486-2166,info@profexoshipping.com,99.5,Greensboro - High Point,Minneapolis - St. Paul - Bloomington,36.095873,-80.00471,45.123177,-93.379284,01_26_2023_07_48,01_26_2023_16_35
SUV,Charlotte,NC,28269,Chula Vista,CA,91911,2600,COD/COP,2397,1,2022 mercedes-benz g squared 4x4,Runs,ENCLOSED,2023-01-26,11145126,FOR DISPATCH CALL 754-304-5145,American Auto Transport,(954) 278-3873,dispatch@autotransportaat.com,99.8,Charlotte - Gastonia - Rock Hill,San Diego - Carlsbad - San Marcos,35.340751,-80.7936,32.607009,-117.050286,01_26_2023_07_48,01_26_2023_15_55
